{"type": "FeatureCollection", "features": [{"type": "Feature", "id": "3723384", "geometry": {"type": "Point", "coordinates": [-6.220014, 53.459866]}, "properties": {"xid": "W23587238", "name": "Swords Castle", "rate": 7, "osm": "way/23587238", "wikidata": "Q430193", "kinds": "historic_architecture,architecture,fortifications,historic,monuments_and_memorials,interesting_places,manor_houses,castles,monuments"}, "Photo": "http://upload.wikimedia.org/wikipedia/commons/thumb/3/3a/Swords_Castle_%28Near_Dublin_Airport%29_-_panoramio_%2811%29.jpg/220px-Swords_Castle_%28Near_Dublin_Airport%29_-_panoramio_%2811%29.jpg", "Website": "https://en.wikipedia.org/w/index.php?title=Swords_Castle&oldid=939034765"}, {"type": "Feature", "id": "5405225", "geometry": {"type": "Point", "coordinates": [-6.220148, 53.459503]}, "properties": {"xid": "W282478787", "name": "Swords Castle", "rate": 7, "osm": "way/282478787", "wikidata": "Q430193", "kinds": "historic_architecture,palaces,architecture,fortifications,historic,monuments_and_memorials,interesting_places,castles,monuments"}, "Photo": "http://upload.wikimedia.org/wikipedia/commons/thumb/3/3a/Swords_Castle_%28Near_Dublin_Airport%29_-_panoramio_%2811%29.jpg/220px-Swords_Castle_%28Near_Dublin_Airport%29_-_panoramio_%2811%29.jpg", "Website": "https://en.wikipedia.org/w/index.php?title=Swords_Castle&oldid=939034765"}, {"type": "Feature", "id": "5517966", "geometry": {"type": "Point", "coordinates": [-6.15052, 53.28904]}, "properties": {"xid": "W287091967", "name": "Monkstown Castle", "rate": 7, "osm": "way/287091967", "wikidata": "Q30970315", "kinds": "historic_architecture,architecture,fortifications,historic,monuments_and_memorials,interesting_places,destroyed_objects,castles,monuments"}, "Photo": "http://upload.wikimedia.org/wikipedia/commons/thumb/2/2e/Monkstown_Castle_from_the_East.jpg/220px-Monkstown_Castle_from_the_East.jpg", "Website": "null"}, {"type": "Feature", "id": "9533760", "geometry": {"type": "Point", "coordinates": [-6.593894, 53.38126]}, "properties": {"xid": "W31510307", "name": "Maynooth Castle", "rate": 7, "osm": "way/31510307", "wikidata": "Q6797465", "kinds": "fortifications,historic,monuments_and_memorials,interesting_places,castles,monuments"}, "Photo": "http://upload.wikimedia.org/wikipedia/commons/thumb/0/09/Maynooth_Castle4.jpg/220px-Maynooth_Castle4.jpg", "Website": "null"}, {"type": "Feature", "id": "9544053", "geometry": {"type": "Point", "coordinates": [-6.275574, 53.257698]}, "properties": {"xid": "N1300740774", "name": "Kilmashogue Wedge Tomb", "rate": 7, "osm": "node/1300740774", "wikidata": "Q33123071", "kinds": "megaliths,historic,dolmens,monuments_and_memorials,burial_places,archaeology,interesting_places,monuments"}, "Photo": "http://upload.wikimedia.org/wikipedia/commons/thumb/f/f7/Kilmashogue_Wedge_Tomb_j.JPG/220px-Kilmashogue_Wedge_Tomb_j.JPG", "Website": "null"}, {"type": "Feature", "id": "9611446", "geometry": {"type": "Point", "coordinates": [-6.326461, 53.596565]}, "properties": {"xid": "W286946697", "name": "Fourknocks Megalithic Passage Tomb", "rate": 7, "osm": "way/286946697", "wikidata": "Q1440021", "kinds": "megaliths,historic,monuments_and_memorials,burial_places,archaeology,interesting_places,other_burial_places,monuments"}, "Photo": "http://upload.wikimedia.org/wikipedia/commons/thumb/9/9b/Passage_tomb_at_Fourknocks%2C_Co._Meath_-_geograph.org.uk_-_544567.jpg/220px-Passage_tomb_at_Fourknocks%2C_Co._Meath_-_geograph.org.uk_-_544567.jpg", "Website": "null"}, {"type": "Feature", "id": "9639890", "geometry": {"type": "Point", "coordinates": [-6.188308, 53.587494]}, "properties": {"xid": "W154608110", "name": "Balrothery Inn", "rate": 7, "osm": "way/154608110", "wikidata": "Q24883197", "kinds": "historic_architecture,architecture,fortifications,historic,monuments_and_memorials,interesting_places,castles,pubs,foods,monuments,tourist_facilities,other_buildings_and_structures"}, "Photo": "http://upload.wikimedia.org/wikipedia/commons/thumb/2/2b/Balrothery_Church_2_Sep2015.jpg/220px-Balrothery_Church_2_Sep2015.jpg", "Website": "null"}, {"type": "Feature", "id": "9725454", "geometry": {"type": "Point", "coordinates": [-6.594381, 53.380909]}, "properties": {"xid": "R283120", "name": "Maynooth Keep", "rate": 7, "osm": "relation/283120", "wikidata": "Q6797465", "kinds": "fortifications,historic,monuments_and_memorials,interesting_places,castles,monuments"}, "Photo": "http://upload.wikimedia.org/wikipedia/commons/thumb/0/09/Maynooth_Castle4.jpg/220px-Maynooth_Castle4.jpg", "Website": "null"}, {"type": "Feature", "id": "12764988", "geometry": {"type": "Point", "coordinates": [-6.48738, 53.181728]}, "properties": {"xid": "Q20541600", "name": "Threecastles Castle", "rate": 7, "wikidata": "Q20541600", "kinds": "fortifications,historic,monuments_and_memorials,interesting_places,castles,monuments"}, "Photo": "http://upload.wikimedia.org/wikipedia/commons/thumb/d/dd/Threecastles_near_Kilbride%2C_Co_Wicklow._-_geograph.org.uk_-_262197.jpg/220px-Threecastles_near_Kilbride%2C_Co_Wicklow._-_geograph.org.uk_-_262197.jpg", "Website": "null"}, {"type": "Feature", "id": "12768799", "geometry": {"type": "Point", "coordinates": [-6.105232, 53.277763]}, "properties": {"xid": "Q24890788", "name": "Archbold's Castle", "rate": 7, "wikidata": "Q24890788", "kinds": "fortifications,historic,monuments_and_memorials,interesting_places,castles,monuments"}, "Photo": "http://upload.wikimedia.org/wikipedia/commons/thumb/b/b1/Archibolds_Castle_Dalkey.JPG/220px-Archibolds_Castle_Dalkey.JPG", "Website": "null"}, {"type": "Feature", "id": "13170687", "geometry": {"type": "Point", "coordinates": [-6.394809, 53.186268]}, "properties": {"xid": "Q26837617", "name": "Seefin Passage Tomb", "rate": 7, "wikidata": "Q26837617", "kinds": "megaliths,historic,burial_places,monuments_and_memorials,archaeology,interesting_places,other_burial_places,monuments"}, "Photo": "http://upload.wikimedia.org/wikipedia/commons/thumb/b/b8/Seefin_Passage_Tomb.jpg/220px-Seefin_Passage_Tomb.jpg", "Website": "null"}, {"type": "Feature", "id": "2746666", "geometry": {"type": "Point", "coordinates": [-6.063766, 53.387596]}, "properties": {"xid": "N5277871721", "name": "Ye Olde Hurdy-Gurdy (Museum of Vintage Radio)", "rate": 3, "osm": "node/5277871721", "wikidata": "Q19868383", "kinds": "fortifications,historic,museums,cultural,interesting_places,museums_of_science_and_technology,history_museums,other_fortifications,other_technology_museums"}, "Photo": "http://upload.wikimedia.org/wikipedia/commons/thumb/c/c7/Martello_tower_-near_Howth_-Ireland-3Sept2008.jpg/220px-Martello_tower_-near_Howth_-Ireland-3Sept2008.jpg", "Website": "https://hurdygurdyradiomuseum.wordpress.com/"}, {"type": "Feature", "id": "3291140", "geometry": {"type": "Point", "coordinates": [-6.280271, 53.238579]}, "properties": {"xid": "W548688210", "name": "Tibradden Chambered Cairn", "rate": 3, "osm": "way/548688210", "wikidata": "Q3777165", "kinds": "megaliths,historic,archaeology,interesting_places"}, "Photo": "http://upload.wikimedia.org/wikipedia/commons/thumb/4/40/Tibradden_Mountain.jpg/220px-Tibradden_Mountain.jpg", "Website": "null"}, {"type": "Feature", "id": "3568978", "geometry": {"type": "Point", "coordinates": [-6.290306, 53.347706]}, "properties": {"xid": "N2472101613", "name": "Anna Livia", "rate": 3, "osm": "node/2472101613", "wikidata": "Q4767232", "kinds": "historic,monuments_and_memorials,urban_environment,cultural,interesting_places,installation,monuments"}, "Photo": "http://upload.wikimedia.org/wikipedia/commons/thumb/0/00/Anna_Livia%2C_Croppies_Memorial_Park.jpg/220px-Anna_Livia%2C_Croppies_Memorial_Park.jpg", "Website": "null"}, {"type": "Feature", "id": "3861603", "geometry": {"type": "Point", "coordinates": [-6.265469, 53.340588]}, "properties": {"xid": "N3534239257", "name": "Thomas Moore", "rate": 3, "osm": "node/3534239257", "wikidata": "Q315346", "kinds": "historic,monuments_and_memorials,interesting_places,monuments"}, "Photo": "http://upload.wikimedia.org/wikipedia/commons/thumb/3/34/Thomas_Moore_from_NPG.jpg/220px-Thomas_Moore_from_NPG.jpg", "Website": "http://data.bnf.fr/ark:/12148/cb12029801k"}, {"type": "Feature", "id": "3861760", "geometry": {"type": "Point", "coordinates": [-6.259343, 53.34771]}, "properties": {"xid": "N603833917", "name": "Daniel O'Connell", "rate": 3, "osm": "node/603833917", "wikidata": "Q314917", "kinds": "historic,monuments_and_memorials,interesting_places,monuments"}, "Photo": "http://upload.wikimedia.org/wikipedia/commons/thumb/c/c5/Daniel_O%27Connell.png/220px-Daniel_O%27Connell.png", "Website": "http://data.bnf.fr/ark:/12148/cb11964016f"}, {"type": "Feature", "id": "3862571", "geometry": {"type": "Point", "coordinates": [-6.265501, 53.345295]}, "properties": {"xid": "N3224845493", "name": "Rory Gallagher Corner", "rate": 3, "osm": "node/3224845493", "wikidata": "Q331922", "kinds": "historic,monuments_and_memorials,interesting_places,monuments"}, "Photo": "http://upload.wikimedia.org/wikipedia/commons/thumb/2/2a/Rory_Gallagher_1982.jpg/220px-Rory_Gallagher_1982.jpg", "Website": "http://data.bnf.fr/ark:/12148/cb138942590"}, {"type": "Feature", "id": "3863086", "geometry": {"type": "Point", "coordinates": [-6.264923, 53.356632]}, "properties": {"xid": "N5404670726", "name": "Se\u00e1n O'Casey", "rate": 3, "osm": "node/5404670726", "wikidata": "Q315170", "kinds": "historic,monuments_and_memorials,interesting_places,monuments"}, "Photo": "http://upload.wikimedia.org/wikipedia/commons/9/9a/Sean_ocasey_1924.jpg", "Website": "http://data.bnf.fr/ark:/12148/cb120172199"}, {"type": "Feature", "id": "3863092", "geometry": {"type": "Point", "coordinates": [-6.250846, 53.343796]}, "properties": {"xid": "N5501795905", "name": "Humphrey Lloyd FRS", "rate": 3, "osm": "node/5501795905", "wikidata": "Q1637256", "kinds": "historic,monuments_and_memorials,interesting_places,monuments"}, "Photo": "http://upload.wikimedia.org/wikipedia/commons/thumb/b/b1/Humphrey_Lloyd.jpg/220px-Humphrey_Lloyd.jpg", "Website": "https://www.idref.fr/167893890"}, {"type": "Feature", "id": "3879941", "geometry": {"type": "Point", "coordinates": [-6.299988, 53.372906]}, "properties": {"xid": "N448606595", "name": "William Rowan Hamilton Plaque", "rate": 3, "osm": "node/448606595", "wikidata": "Q11887", "kinds": "historic,monuments_and_memorials,interesting_places,monuments"}, "Photo": "http://upload.wikimedia.org/wikipedia/commons/thumb/1/15/William_Rowan_Hamilton_painting.jpg/220px-William_Rowan_Hamilton_painting.jpg", "Website": "https://www.idref.fr/030098505"}, {"type": "Feature", "id": "3894904", "geometry": {"type": "Point", "coordinates": [-6.259703, 53.348526]}, "properties": {"xid": "N1348371039", "name": "Sir John Gray Knt MD JP", "rate": 3, "osm": "node/1348371039", "wikidata": "Q6236086", "kinds": "historic,monuments_and_memorials,interesting_places,monuments"}, "Photo": "http://upload.wikimedia.org/wikipedia/commons/thumb/f/fe/Sir_John_Gray.JPG/220px-Sir_John_Gray.JPG", "Website": "http://id.worldcat.org/fast/362769"}, {"type": "Feature", "id": "3894905", "geometry": {"type": "Point", "coordinates": [-6.258903, 53.345154]}, "properties": {"xid": "N1348371015", "name": "Thomas Moore Statue", "rate": 3, "osm": "node/1348371015", "wikidata": "Q315346", "kinds": "historic,monuments_and_memorials,interesting_places,monuments"}, "Photo": "http://upload.wikimedia.org/wikipedia/commons/thumb/3/34/Thomas_Moore_from_NPG.jpg/220px-Thomas_Moore_from_NPG.jpg", "Website": "http://data.bnf.fr/ark:/12148/cb12029801k"}, {"type": "Feature", "id": "3902036", "geometry": {"type": "Point", "coordinates": [-6.266643, 53.331802]}, "properties": {"xid": "N1694709875", "name": "The Birthplace of George Bernard Shaw", "rate": 3, "osm": "node/1694709875", "wikidata": "Q19185", "kinds": "historic,monuments_and_memorials,interesting_places,monuments"}, "Photo": "http://upload.wikimedia.org/wikipedia/commons/thumb/f/f2/George_Bernard_Shaw_1936.jpg/220px-George_Bernard_Shaw_1936.jpg", "Website": "http://data.bnf.fr/ark:/12148/cb11924627x"}, {"type": "Feature", "id": "3942271", "geometry": {"type": "Point", "coordinates": [-6.290823, 53.348011]}, "properties": {"xid": "N3601143406", "name": "Ludwig Wittgenstein", "rate": 3, "osm": "node/3601143406", "wikidata": "Q9391", "kinds": "historic,monuments_and_memorials,interesting_places,monuments"}, "Photo": "http://upload.wikimedia.org/wikipedia/commons/thumb/a/ab/Ludwig_Wittgenstein.jpg/220px-Ludwig_Wittgenstein.jpg", "Website": "http://data.bnf.fr/ark:/12148/cb11929322k"}, {"type": "Feature", "id": "3978233", "geometry": {"type": "Point", "coordinates": [-6.257715, 53.33123]}, "properties": {"xid": "N5303854455", "name": "Sarah H Purser", "rate": 3, "osm": "node/5303854455", "wikidata": "Q7422719", "kinds": "historic,monuments_and_memorials,interesting_places,monuments"}, "Photo": "http://upload.wikimedia.org/wikipedia/commons/thumb/8/8b/Sarah_Purser_by_John_Butler_Yeats.png/220px-Sarah_Purser_by_John_Butler_Yeats.png", "Website": "https://uvic2.coppul.archivematica.org/sarah-purser-fonds"}, {"type": "Feature", "id": "3982131", "geometry": {"type": "Point", "coordinates": [-6.235159, 53.321613]}, "properties": {"xid": "N5477047764", "name": "Thomas Osborne Davis", "rate": 3, "osm": "node/5477047764", "wikidata": "Q7788880", "kinds": "historic,monuments_and_memorials,interesting_places,monuments"}, "Photo": "http://upload.wikimedia.org/wikipedia/commons/thumb/9/96/Thomas_Davis_Young_Irelander.JPG/220px-Thomas_Davis_Young_Irelander.JPG", "Website": "https://www.gutenberg.org/files/61000/61000-h/61000-h.htm#Page_262"}, {"type": "Feature", "id": "3995419", "geometry": {"type": "Point", "coordinates": [-6.267701, 53.343838]}, "properties": {"xid": "N6214680635", "name": "Eamonn Ceannt", "rate": 3, "osm": "node/6214680635", "wikidata": "Q965189", "kinds": "historic,monuments_and_memorials,interesting_places,monuments"}, "Photo": "http://upload.wikimedia.org/wikipedia/commons/1/13/%C3%89amonn_Ceannt.jpg", "Website": "https://en.wikipedia.org/w/index.php?title=\u00c9amonn_Ceannt&oldid=929305034"}, {"type": "Feature", "id": "3996981", "geometry": {"type": "Point", "coordinates": [-6.535674, 53.168171]}, "properties": {"xid": "N6305566850", "name": "Proclamation of the Irish Republic", "rate": 3, "osm": "node/6305566850", "wikidata": "Q1198240", "kinds": "historic,monuments_and_memorials,interesting_places,monuments"}, "Photo": "http://upload.wikimedia.org/wikipedia/commons/thumb/4/4c/Easter_Proclamation_of_1916.png/220px-Easter_Proclamation_of_1916.png", "Website": "null"}, {"type": "Feature", "id": "3997012", "geometry": {"type": "Point", "coordinates": [-6.532171, 53.170921]}, "properties": {"xid": "N6307195859", "name": "Dame Ninette de Valois", "rate": 3, "osm": "node/6307195859", "wikidata": "Q234436", "kinds": "historic,monuments_and_memorials,interesting_places,monuments"}, "Photo": "http://upload.wikimedia.org/wikipedia/commons/thumb/7/78/Aankomst_choreografe_Dame_Ninette_de_Vaois_op_Schiphol%2C_kop%2C_Bestanddeelnr_927-2695.jpg/220px-Aankomst_choreografe_Dame_Ninette_de_Vaois_op_Schiphol%2C_kop%2C_Bestanddeelnr_927-2695.jpg", "Website": "http://data.bnf.fr/ark:/12148/cb13622861x"}, {"type": "Feature", "id": "4043803", "geometry": {"type": "Point", "coordinates": [-6.090509, 53.193787]}, "properties": {"xid": "N3224772080", "name": "Raheen-A-Cluig Church", "rate": 3, "osm": "node/3224772080", "wikidata": "Q28232156", "kinds": "historic,archaeology,interesting_places,other_archaeological_sites"}, "Photo": "http://upload.wikimedia.org/wikipedia/commons/thumb/3/36/Raheenachluig_Church._Bray.jpg/220px-Raheenachluig_Church._Bray.jpg", "Website": "https://en.wikipedia.org/w/index.php?title=Raheen-a-Cluig&oldid=920125213"}, {"type": "Feature", "id": "4204223", "geometry": {"type": "Point", "coordinates": [-6.235678, 53.321316]}, "properties": {"xid": "W273033995", "name": "Donnybrook Graveyard", "rate": 3, "osm": "way/273033995", "wikidata": "Q5296764", "kinds": "cemeteries,historic,burial_places,interesting_places"}, "Photo": "http://upload.wikimedia.org/wikipedia/commons/thumb/2/25/Donnybrook_Cemetery_Dublin.JPG/220px-Donnybrook_Cemetery_Dublin.JPG", "Website": "https://en.wikipedia.org/w/index.php?title=Donnybrook_Cemetery&oldid=925408322"}, {"type": "Feature", "id": "4204252", "geometry": {"type": "Point", "coordinates": [-6.278583, 53.372082]}, "properties": {"xid": "W379160319", "name": "Glasnevin Cemetery", "rate": 3, "osm": "way/379160319", "wikidata": "Q1263215", "kinds": "cemeteries,historic,burial_places,interesting_places"}, "Photo": "http://upload.wikimedia.org/wikipedia/commons/thumb/a/a5/Glasnevintower.jpg/220px-Glasnevintower.jpg", "Website": "http://www.glasnevintrust.ie"}, {"type": "Feature", "id": "4230562", "geometry": {"type": "Point", "coordinates": [-6.306735, 53.342873]}, "properties": {"xid": "W57404513", "name": "Bully's Acre", "rate": 3, "osm": "way/57404513", "wikidata": "Q4997076", "kinds": "cemeteries,historic,burial_places,interesting_places"}, "Photo": "http://upload.wikimedia.org/wikipedia/commons/thumb/1/10/Bullysacre03.JPG/220px-Bullysacre03.JPG", "Website": "null"}, {"type": "Feature", "id": "4240249", "geometry": {"type": "Point", "coordinates": [-6.171526, 53.295273]}, "properties": {"xid": "W88690119", "name": "Friends Burial Ground", "rate": 3, "osm": "way/88690119", "wikidata": "Q5504156", "kinds": "cemeteries,historic,burial_places,interesting_places"}, "Photo": "http://upload.wikimedia.org/wikipedia/commons/thumb/d/dc/Friends_Burial_Ground%2C_Temple_Hill.JPG/220px-Friends_Burial_Ground%2C_Temple_Hill.JPG", "Website": "https://en.wikipedia.org/w/index.php?title=Friends_Burial_Ground,_Dublin&oldid=897745115"}, {"type": "Feature", "id": "4317868", "geometry": {"type": "Point", "coordinates": [-6.305726, 53.360493]}, "properties": {"xid": "W233995833", "name": "Grangegorman Military Cemetery", "rate": 3, "osm": "way/233995833", "wikidata": "Q5595705", "kinds": "cemeteries,historic,burial_places,interesting_places"}, "Photo": "http://upload.wikimedia.org/wikipedia/commons/thumb/3/35/PanoramaGrangegorman.jpg/220px-PanoramaGrangegorman.jpg", "Website": "https://en.wikipedia.org/w/index.php?title=Grangegorman_Military_Cemetery&oldid=919315571"}, {"type": "Feature", "id": "5369708", "geometry": {"type": "Point", "coordinates": [-6.430846, 53.373482]}, "properties": {"xid": "W502548380", "name": "Luttrellstown Castle", "rate": 3, "osm": "way/502548380", "wikidata": "Q6705989", "kinds": "fortifications,historic,monuments_and_memorials,interesting_places,castles,monuments"}, "Photo": "http://upload.wikimedia.org/wikipedia/commons/thumb/5/5b/Luttrellstown_Castle_by_Rose_Barton_1898.jpg/220px-Luttrellstown_Castle_by_Rose_Barton_1898.jpg", "Website": "null"}, {"type": "Feature", "id": "5377141", "geometry": {"type": "Point", "coordinates": [-6.330544, 53.365757]}, "properties": {"xid": "W48806678", "name": "Ashtown Castle", "rate": 3, "osm": "way/48806678", "wikidata": "Q726404", "kinds": "fortifications,historic,monuments_and_memorials,interesting_places,castles,monuments"}, "Photo": "http://upload.wikimedia.org/wikipedia/commons/thumb/3/36/Ashtown_Castle1.JPG/220px-Ashtown_Castle1.JPG", "Website": "null"}, {"type": "Feature", "id": "5377586", "geometry": {"type": "Point", "coordinates": [-6.159828, 53.586433]}, "properties": {"xid": "R5479104", "name": "Ardgillan Castle", "rate": 3, "osm": "relation/5479104", "wikidata": "Q3756643", "kinds": "fortifications,historic,monuments_and_memorials,interesting_places,castles,monuments"}, "Photo": "http://upload.wikimedia.org/wikipedia/commons/thumb/d/dc/Ardgillan_castle.jpg/220px-Ardgillan_castle.jpg", "Website": "https://ardgillancastle.ie"}, {"type": "Feature", "id": "9215477", "geometry": {"type": "Point", "coordinates": [-6.124518, 53.432156]}, "properties": {"xid": "N937232531", "name": "The Southern Cross Monument", "rate": 3, "osm": "node/937232531", "wikidata": "Q1679945", "kinds": "historic,monuments_and_memorials,interesting_places,monuments"}, "Photo": "http://upload.wikimedia.org/wikipedia/commons/thumb/1/11/James_A_Mollison.jpg/220px-James_A_Mollison.jpg", "Website": "null"}, {"type": "Feature", "id": "9216988", "geometry": {"type": "Point", "coordinates": [-6.293723, 53.322399]}, "properties": {"xid": "N3524621784", "name": "Eamonn Ceannt", "rate": 3, "osm": "node/3524621784", "wikidata": "Q965189", "kinds": "historic,monuments_and_memorials,interesting_places,monuments"}, "Photo": "http://upload.wikimedia.org/wikipedia/commons/1/13/%C3%89amonn_Ceannt.jpg", "Website": "https://en.wikipedia.org/w/index.php?title=\u00c9amonn_Ceannt&oldid=929305034"}, {"type": "Feature", "id": "9217552", "geometry": {"type": "Point", "coordinates": [-6.268624, 53.342476]}, "properties": {"xid": "N4877121836", "name": "Jonathan Swift", "rate": 3, "osm": "node/4877121836", "wikidata": "Q41166", "kinds": "historic,monuments_and_memorials,interesting_places,monuments"}, "Photo": "http://upload.wikimedia.org/wikipedia/commons/thumb/4/4b/Jonathan_Swift_by_Charles_Jervas_detail.jpg/220px-Jonathan_Swift_by_Charles_Jervas_detail.jpg", "Website": "http://data.bnf.fr/ark:/12148/cb119258220"}, {"type": "Feature", "id": "9218010", "geometry": {"type": "Point", "coordinates": [-6.297636, 53.351822]}, "properties": {"xid": "N6201965275", "name": "Jerome Connor", "rate": 3, "osm": "node/6201965275", "wikidata": "Q6182633", "kinds": "historic,monuments_and_memorials,interesting_places,monuments"}, "Photo": "http://upload.wikimedia.org/wikipedia/commons/thumb/e/e8/Portrait_of_Jerome_Connor.jpg/220px-Portrait_of_Jerome_Connor.jpg", "Website": "https://rkd.nl/explore/artists/424030"}, {"type": "Feature", "id": "9218032", "geometry": {"type": "Point", "coordinates": [-6.118165, 53.221653]}, "properties": {"xid": "N6313124658", "name": "Grave of Albert Reynolds", "rate": 3, "osm": "node/6313124658", "wikidata": "Q380182", "kinds": "historic,monuments_and_memorials,interesting_places,monuments"}, "Photo": "http://upload.wikimedia.org/wikipedia/commons/thumb/4/41/Albert_Reynolds_%28cropped%29.jpg/220px-Albert_Reynolds_%28cropped%29.jpg", "Website": "https://www.idref.fr/171351339"}, {"type": "Feature", "id": "9244422", "geometry": {"type": "Point", "coordinates": [-6.317529, 53.344559]}, "properties": {"xid": "W26868842", "name": "National War Memorial Garden", "rate": 3, "osm": "way/26868842", "wikidata": "Q6071033", "kinds": "historic,burial_places,interesting_places,war_memorials"}, "Photo": "http://upload.wikimedia.org/wikipedia/commons/thumb/b/ba/Memorial_Rose-Garden_Pond.JPG/220px-Memorial_Rose-Garden_Pond.JPG", "Website": "null"}, {"type": "Feature", "id": "9265253", "geometry": {"type": "Point", "coordinates": [-6.202201, 53.311981]}, "properties": {"xid": "W305230203", "name": "Merrion Cemetery", "rate": 3, "osm": "way/305230203", "wikidata": "Q6820305", "kinds": "cemeteries,historic,burial_places,interesting_places"}, "Photo": "http://upload.wikimedia.org/wikipedia/commons/thumb/b/b2/Merrion_Cemetery%2C_Prince_of_Wales_Packet_Memorial.JPG/220px-Merrion_Cemetery%2C_Prince_of_Wales_Packet_Memorial.JPG", "Website": "https://en.wikipedia.org/w/index.php?title=Merrion_Cemetery,_Bellevue&oldid=787214055"}, {"type": "Feature", "id": "9465110", "geometry": {"type": "Point", "coordinates": [-6.292479, 53.200893]}, "properties": {"xid": "W237904532", "name": "Glencree German War Cemetery", "rate": 3, "osm": "way/237904532", "wikidata": "Q1205321", "kinds": "cemeteries,historic,burial_places,interesting_places"}, "Photo": "http://upload.wikimedia.org/wikipedia/commons/thumb/4/47/Soldatenfriedhof_Glencree_1.JPG/220px-Soldatenfriedhof_Glencree_1.JPG", "Website": "null"}, {"type": "Feature", "id": "9481498", "geometry": {"type": "Point", "coordinates": [-6.333028, 53.324902]}, "properties": {"xid": "N1345619312", "name": "Drimnagh Castle", "rate": 3, "osm": "node/1345619312", "wikidata": "Q5307662", "kinds": "fortifications,historic,monuments_and_memorials,interesting_places,castles,monuments"}, "Photo": "http://upload.wikimedia.org/wikipedia/commons/thumb/5/59/Drimnagh_Castle_-_20180302173736.jpg/220px-Drimnagh_Castle_-_20180302173736.jpg", "Website": "null"}, {"type": "Feature", "id": "9488409", "geometry": {"type": "Point", "coordinates": [-6.260474, 53.354107]}, "properties": {"xid": "N3674218865", "name": "Sir Samuel Ferguson", "rate": 3, "osm": "node/3674218865", "wikidata": "Q5728252", "kinds": "historic,monuments_and_memorials,interesting_places,monuments"}, "Photo": "http://upload.wikimedia.org/wikipedia/commons/thumb/7/7a/Samuel.Ferguson.jpg/220px-Samuel.Ferguson.jpg", "Website": "http://data.bnf.fr/ark:/12148/cb12127657b"}, {"type": "Feature", "id": "9489769", "geometry": {"type": "Point", "coordinates": [-6.27598, 53.328697]}, "properties": {"xid": "N4230221810", "name": "Robert Emmet", "rate": 3, "osm": "node/4230221810", "wikidata": "Q558750", "kinds": "historic,monuments_and_memorials,interesting_places,monuments"}, "Photo": "http://upload.wikimedia.org/wikipedia/commons/thumb/6/6a/Robert_Emmet--The_Irish_Patriot.jpg/220px-Robert_Emmet--The_Irish_Patriot.jpg", "Website": "http://data.bnf.fr/ark:/12148/cb145349657"}, {"type": "Feature", "id": "9495364", "geometry": {"type": "Point", "coordinates": [-6.162607, 53.444996]}, "properties": {"xid": "N6654757359", "name": "Malahide Castle and Gardens", "rate": 3, "osm": "node/6654757359", "wikidata": "Q2661381", "kinds": "fortifications,historic,monuments_and_memorials,interesting_places,castles,monuments"}, "Photo": "http://upload.wikimedia.org/wikipedia/commons/thumb/a/ab/Malahide_Castle%2C_March_2011_%283%29.jpg/220px-Malahide_Castle%2C_March_2011_%283%29.jpg", "Website": "http://malahidecastle.com"}, {"type": "Feature", "id": "9496818", "geometry": {"type": "Point", "coordinates": [-6.263297, 53.346527]}, "properties": {"xid": "N5376912546", "name": "Ha'Penny Bridge", "rate": 3, "osm": "node/5376912546", "wikidata": "Q1034624", "kinds": "historic,monuments_and_memorials,interesting_places,monuments"}, "Photo": "http://upload.wikimedia.org/wikipedia/commons/thumb/5/53/HalfPennyBridge.jpg/220px-HalfPennyBridge.jpg", "Website": "https://it.wikipedia.org/w/index.php?title=Ha'penny_Bridge&oldid=119465255"}, {"type": "Feature", "id": "9526231", "geometry": {"type": "Point", "coordinates": [-6.270939, 53.336761]}, "properties": {"xid": "W227816928", "name": "The Cabbage Garden", "rate": 3, "osm": "way/227816928", "wikidata": "Q7720881", "kinds": "cemeteries,historic,gardens_and_parks,burial_places,urban_environment,cultural,interesting_places"}, "Photo": "http://upload.wikimedia.org/wikipedia/commons/thumb/4/4e/Cabbage_Garden_Cemetery.jpg/220px-Cabbage_Garden_Cemetery.jpg", "Website": "https://en.wikipedia.org/w/index.php?title=The_Cabbage_Garden,_Dublin&oldid=856100239"}, {"type": "Feature", "id": "9537510", "geometry": {"type": "Point", "coordinates": [-6.267588, 53.322823]}, "properties": {"xid": "N4217632743", "name": "Lafcadio Hearn", "rate": 3, "osm": "node/4217632743", "wikidata": "Q313638", "kinds": "historic,monuments_and_memorials,interesting_places,monuments"}, "Photo": "http://upload.wikimedia.org/wikipedia/commons/thumb/d/dc/Portrait_of_Lafcadio_Hearn.jpg/220px-Portrait_of_Lafcadio_Hearn.jpg", "Website": "http://data.bnf.fr/ark:/12148/cb119070801"}, {"type": "Feature", "id": "9537631", "geometry": {"type": "Point", "coordinates": [-6.260822, 53.351048]}, "properties": {"xid": "N603833919", "name": "Theobald Mathew", "rate": 3, "osm": "node/603833919", "wikidata": "Q983030", "kinds": "historic,monuments_and_memorials,interesting_places,monuments"}, "Photo": "http://upload.wikimedia.org/wikipedia/commons/thumb/0/03/Theobald_Mathew.jpg/220px-Theobald_Mathew.jpg", "Website": "https://www.idref.fr/09148037X"}, {"type": "Feature", "id": "9538526", "geometry": {"type": "Point", "coordinates": [-6.269797, 53.340466]}, "properties": {"xid": "N3562601372", "name": "John Field", "rate": 3, "osm": "node/3562601372", "wikidata": "Q209684", "kinds": "historic,monuments_and_memorials,interesting_places,monuments"}, "Photo": "http://upload.wikimedia.org/wikipedia/commons/thumb/f/f7/John_field.jpg/220px-John_field.jpg", "Website": "http://data.bnf.fr/ark:/12148/cb13893916d"}, {"type": "Feature", "id": "9538560", "geometry": {"type": "Point", "coordinates": [-6.266701, 53.349129]}, "properties": {"xid": "N3743432720", "name": "Sir John T Gilbert", "rate": 3, "osm": "node/3743432720", "wikidata": "Q6260565", "kinds": "historic,monuments_and_memorials,interesting_places,monuments"}, "Photo": "http://upload.wikimedia.org/wikipedia/commons/thumb/d/d3/Sir_John_Thomas_Gilbert_%281829-1898%29.jpg/220px-Sir_John_Thomas_Gilbert_%281829-1898%29.jpg", "Website": "http://data.bnf.fr/ark:/12148/cb12216370f"}, {"type": "Feature", "id": "9538894", "geometry": {"type": "Point", "coordinates": [-6.25554, 53.34837]}, "properties": {"xid": "N5597005626", "name": "Spanish Civil War International Brigade", "rate": 3, "osm": "node/5597005626", "wikidata": "Q132518", "kinds": "historic,monuments_and_memorials,interesting_places,monuments"}, "Photo": "http://upload.wikimedia.org/wikipedia/commons/thumb/6/6f/Emblem_of_the_International_Brigades.svg/220px-Emblem_of_the_International_Brigades.svg.png", "Website": "https://es.wikipedia.org/w/index.php?title=Brigadas_Internacionales&oldid=113136503"}, {"type": "Feature", "id": "9538993", "geometry": {"type": "Point", "coordinates": [-6.272689, 53.322926]}, "properties": {"xid": "N6617311801", "name": "Constance Markievicz", "rate": 3, "osm": "node/6617311801", "wikidata": "Q195768", "kinds": "historic,monuments_and_memorials,interesting_places,monuments"}, "Photo": "http://upload.wikimedia.org/wikipedia/commons/thumb/4/46/Countess_Markiewicz.jpg/220px-Countess_Markiewicz.jpg", "Website": "http://data.bnf.fr/ark:/12148/cb12569905x"}, {"type": "Feature", "id": "9539035", "geometry": {"type": "Point", "coordinates": [-6.303118, 53.349049]}, "properties": {"xid": "W40498842", "name": "Wellington Monument", "rate": 3, "osm": "way/40498842", "wikidata": "Q3308144", "kinds": "historic,monuments_and_memorials,urban_environment,cultural,interesting_places,sculptures,monuments"}, "Photo": "http://upload.wikimedia.org/wikipedia/commons/thumb/c/c0/Ireland_-_Dublin_-_Phoenix_Park_-_Wellington_Monument.jpg/220px-Ireland_-_Dublin_-_Phoenix_Park_-_Wellington_Monument.jpg", "Website": "null"}, {"type": "Feature", "id": "9540201", "geometry": {"type": "Point", "coordinates": [-6.237266, 53.36166]}, "properties": {"xid": "N1508897102", "name": "Se\u00e1n Russell", "rate": 3, "osm": "node/1508897102", "wikidata": "Q3481078", "kinds": "historic,monuments_and_memorials,urban_environment,cultural,interesting_places,sculptures,monuments"}, "Photo": "http://upload.wikimedia.org/wikipedia/commons/thumb/b/be/Sean_Russell_bronze_statue.jpg/220px-Sean_Russell_bronze_statue.jpg", "Website": "null"}, {"type": "Feature", "id": "9541210", "geometry": {"type": "Point", "coordinates": [-6.290224, 53.366081]}, "properties": {"xid": "N3780394070", "name": "1916 Rising", "rate": 3, "osm": "node/3780394070", "wikidata": "Q193689", "kinds": "historic,monuments_and_memorials,interesting_places,monuments"}, "Photo": "http://upload.wikimedia.org/wikipedia/commons/thumb/f/fc/Osteraufstand_-_Dublin_-_gefangene_Iren.jpg/220px-Osteraufstand_-_Dublin_-_gefangene_Iren.jpg", "Website": "https://it.wikipedia.org/w/index.php?title=Rivolta_di_Pasqua&oldid=107027754"}, {"type": "Feature", "id": "9541211", "geometry": {"type": "Point", "coordinates": [-6.247388, 53.35725]}, "properties": {"xid": "N3784593796", "name": "Mary Aikenhead", "rate": 3, "osm": "node/3784593796", "wikidata": "Q15206514", "kinds": "historic,monuments_and_memorials,interesting_places,monuments"}, "Photo": "http://upload.wikimedia.org/wikipedia/commons/thumb/2/29/Mary_Aikenhead_-_1807.jpg/220px-Mary_Aikenhead_-_1807.jpg", "Website": "https://catalogue.bnf.fr/ark:/12148/cb15510153s"}, {"type": "Feature", "id": "9541412", "geometry": {"type": "Point", "coordinates": [-6.270459, 53.339943]}, "properties": {"xid": "N4461027033", "name": "Havel's Place", "rate": 3, "osm": "node/4461027033", "wikidata": "Q15255892", "kinds": "historic,monuments_and_memorials,interesting_places,monuments"}, "Photo": "http://upload.wikimedia.org/wikipedia/commons/thumb/e/e6/Lavi%C4%8Dka_V%C3%A1clava_Havla_-_%C4%8CB.jpg/220px-Lavi%C4%8Dka_V%C3%A1clava_Havla_-_%C4%8CB.jpg", "Website": "null"}, {"type": "Feature", "id": "9541762", "geometry": {"type": "Point", "coordinates": [-6.246461, 53.328159]}, "properties": {"xid": "N5500055968", "name": "Eoin MacNeill", "rate": 3, "osm": "node/5500055968", "wikidata": "Q1346298", "kinds": "historic,monuments_and_memorials,interesting_places,monuments"}, "Photo": "http://upload.wikimedia.org/wikipedia/commons/thumb/0/0e/Eoin_MacNeill.jpg/220px-Eoin_MacNeill.jpg", "Website": "http://data.bnf.fr/ark:/12148/cb10319747n"}, {"type": "Feature", "id": "9542423", "geometry": {"type": "Point", "coordinates": [-6.263015, 53.346104]}, "properties": {"xid": "N5376912544", "name": "Ha'Penny Bridge", "rate": 3, "osm": "node/5376912544", "wikidata": "Q1034624", "kinds": "historic,monuments_and_memorials,interesting_places,monuments"}, "Photo": "http://upload.wikimedia.org/wikipedia/commons/thumb/5/53/HalfPennyBridge.jpg/220px-HalfPennyBridge.jpg", "Website": "https://it.wikipedia.org/w/index.php?title=Ha'penny_Bridge&oldid=119465255"}, {"type": "Feature", "id": "9542424", "geometry": {"type": "Point", "coordinates": [-6.263193, 53.346546]}, "properties": {"xid": "N5376912545", "name": "Ha'Penny Bridge", "rate": 3, "osm": "node/5376912545", "wikidata": "Q1034624", "kinds": "historic,monuments_and_memorials,interesting_places,monuments"}, "Photo": "http://upload.wikimedia.org/wikipedia/commons/thumb/5/53/HalfPennyBridge.jpg/220px-HalfPennyBridge.jpg", "Website": "https://it.wikipedia.org/w/index.php?title=Ha'penny_Bridge&oldid=119465255"}, {"type": "Feature", "id": "9542872", "geometry": {"type": "Point", "coordinates": [-6.250553, 53.340801]}, "properties": {"xid": "N603846354", "name": "Oscar Wilde Memorial", "rate": 3, "osm": "node/603846354", "wikidata": "Q30302790", "kinds": "historic,monuments_and_memorials,urban_environment,cultural,interesting_places,sculptures,monuments"}, "Photo": "http://upload.wikimedia.org/wikipedia/commons/thumb/8/89/Oscar_Wilde_statue%2C_Merrion_Square_1998.jpg/220px-Oscar_Wilde_statue%2C_Merrion_Square_1998.jpg", "Website": "https://it.wikipedia.org/w/index.php?title=Oscar_Wilde_Memorial_Sculpture&oldid=98459266"}, {"type": "Feature", "id": "9543228", "geometry": {"type": "Point", "coordinates": [-6.246516, 53.335346]}, "properties": {"xid": "N5167698292", "name": "Catherine McAuley", "rate": 3, "osm": "node/5167698292", "wikidata": "Q2736460", "kinds": "historic,monuments_and_memorials,urban_environment,cultural,interesting_places,sculptures,monuments"}, "Photo": "http://upload.wikimedia.org/wikipedia/commons/thumb/7/7c/Photo_mcauley.jpg/220px-Photo_mcauley.jpg", "Website": "http://data.bnf.fr/ark:/12148/cb12558858s"}, {"type": "Feature", "id": "9547539", "geometry": {"type": "Point", "coordinates": [-6.31699, 53.247383]}, "properties": {"xid": "N318364784", "name": "Killakee Wedge Tomb", "rate": 3, "osm": "node/318364784", "wikidata": "Q20758249", "kinds": "megaliths,historic,dolmens,monuments_and_memorials,burial_places,archaeology,interesting_places,monuments"}, "Photo": "http://upload.wikimedia.org/wikipedia/commons/thumb/1/11/Killakee_Wedge_Tomb.jpg/220px-Killakee_Wedge_Tomb.jpg", "Website": "null"}, {"type": "Feature", "id": "9548583", "geometry": {"type": "Point", "coordinates": [-6.284314, 53.325771]}, "properties": {"xid": "W24777976", "name": "Mount Jerome Cemetery & Crematorium", "rate": 3, "osm": "way/24777976", "wikidata": "Q917854", "kinds": "cemeteries,historic,burial_places,interesting_places"}, "Photo": "http://upload.wikimedia.org/wikipedia/commons/thumb/1/12/Mt-jerome-entrance.jpg/220px-Mt-jerome-entrance.jpg", "Website": "http://www.mountjerome.ie/"}, {"type": "Feature", "id": "9549165", "geometry": {"type": "Point", "coordinates": [-6.168221, 53.280708]}, "properties": {"xid": "R4296837", "name": "Dean's Grange Cemetery", "rate": 3, "osm": "relation/4296837", "wikidata": "Q1181173", "kinds": "cemeteries,historic,burial_places,interesting_places"}, "Photo": "http://upload.wikimedia.org/wikipedia/commons/thumb/a/ae/Deans_Grange_Cemetery.jpg/220px-Deans_Grange_Cemetery.jpg", "Website": "https://en.wikipedia.org/w/index.php?title=Deans_Grange_Cemetery&oldid=930714611"}, {"type": "Feature", "id": "9549576", "geometry": {"type": "Point", "coordinates": [-6.316819, 53.336342]}, "properties": {"xid": "W30408557", "name": "Goldenbridge Cemetery", "rate": 3, "osm": "way/30408557", "wikidata": "Q29022144", "kinds": "cemeteries,historic,burial_places,interesting_places"}, "Photo": "http://upload.wikimedia.org/wikipedia/commons/thumb/3/32/Temple_at_Goldenbridge_cemetery.jpg/220px-Temple_at_Goldenbridge_cemetery.jpg", "Website": "https://en.wikipedia.org/w/index.php?title=Goldenbridge_Cemetery&oldid=824950620"}, {"type": "Feature", "id": "9550703", "geometry": {"type": "Point", "coordinates": [-6.254838, 53.338676]}, "properties": {"xid": "W167095502", "name": "Huguenot Cemetery", "rate": 3, "osm": "way/167095502", "wikidata": "Q2972618", "kinds": "cemeteries,historic,burial_places,interesting_places"}, "Photo": "http://upload.wikimedia.org/wikipedia/commons/thumb/7/7f/Huguenot-cemetery-1693-entrance.jpg/220px-Huguenot-cemetery-1693-entrance.jpg", "Website": "https://en.wikipedia.org/w/index.php?title=Huguenot_Cemetery,_Dublin&oldid=785926754"}, {"type": "Feature", "id": "9550923", "geometry": {"type": "Point", "coordinates": [-6.150571, 53.289913]}, "properties": {"xid": "W210286146", "name": "Carrickbrennan Graveyard", "rate": 3, "osm": "way/210286146", "wikidata": "Q5046156", "kinds": "cemeteries,historic,burial_places,interesting_places"}, "Photo": "http://upload.wikimedia.org/wikipedia/commons/thumb/d/de/Carrickbrennan_Churchyard.JPG/220px-Carrickbrennan_Churchyard.JPG", "Website": "https://en.wikipedia.org/w/index.php?title=Carrickbrennan_Churchyard&oldid=927022973"}, {"type": "Feature", "id": "9599705", "geometry": {"type": "Point", "coordinates": [-6.260254, 53.3498]}, "properties": {"xid": "W96578181", "name": "Spire of Dublin", "rate": 3, "osm": "way/96578181", "wikidata": "Q1134365", "kinds": "historic,monuments_and_memorials,urban_environment,cultural,interesting_places,sculptures,monuments"}, "Photo": "http://upload.wikimedia.org/wikipedia/commons/thumb/3/3f/TheSpireDublin.jpg/220px-TheSpireDublin.jpg", "Website": "https://en.wikipedia.org/w/index.php?title=Spire_of_Dublin&oldid=872565747"}, {"type": "Feature", "id": "9600358", "geometry": {"type": "Point", "coordinates": [-6.303118, 53.349049]}, "properties": {"xid": "R4179642", "name": "Wellington Monument", "rate": 3, "osm": "relation/4179642", "wikidata": "Q3308144", "kinds": "historic,monuments_and_memorials,urban_environment,cultural,interesting_places,sculptures,monuments"}, "Photo": "http://upload.wikimedia.org/wikipedia/commons/thumb/c/c0/Ireland_-_Dublin_-_Phoenix_Park_-_Wellington_Monument.jpg/220px-Ireland_-_Dublin_-_Phoenix_Park_-_Wellington_Monument.jpg", "Website": "null"}, {"type": "Feature", "id": "9606478", "geometry": {"type": "Point", "coordinates": [-6.079632, 53.386257]}, "properties": {"xid": "W52290400", "name": "Howth Castle", "rate": 3, "osm": "way/52290400", "wikidata": "Q545548", "kinds": "fortifications,historic,monuments_and_memorials,interesting_places,castles,monuments"}, "Photo": "http://upload.wikimedia.org/wikipedia/commons/thumb/f/f9/Howth_Castle_and_Environs.jpg/220px-Howth_Castle_and_Environs.jpg", "Website": "http://www.howthcastle.ie"}, {"type": "Feature", "id": "9608259", "geometry": {"type": "Point", "coordinates": [-6.164611, 53.444939]}, "properties": {"xid": "W326079832", "name": "Malahide Castle", "rate": 3, "osm": "way/326079832", "wikidata": "Q2661381", "kinds": "fortifications,historic,monuments_and_memorials,interesting_places,castles,monuments"}, "Photo": "http://upload.wikimedia.org/wikipedia/commons/thumb/a/ab/Malahide_Castle%2C_March_2011_%283%29.jpg/220px-Malahide_Castle%2C_March_2011_%283%29.jpg", "Website": "http://malahidecastle.com"}, {"type": "Feature", "id": "9610254", "geometry": {"type": "Point", "coordinates": [-6.31828, 53.426907]}, "properties": {"xid": "W257191582", "name": "Dunsoughly Castle (ruin)", "rate": 3, "osm": "way/257191582", "wikidata": "Q25248225", "kinds": "fortifications,historic,monuments_and_memorials,interesting_places,castles,monuments"}, "Photo": "http://upload.wikimedia.org/wikipedia/commons/thumb/c/ca/Castles_of_Leinster-_Dunsoghly%2C_Co._Dublin_%28geograph_2496350%29.jpg/220px-Castles_of_Leinster-_Dunsoghly%2C_Co._Dublin_%28geograph_2496350%29.jpg", "Website": "null"}, {"type": "Feature", "id": "9625277", "geometry": {"type": "Point", "coordinates": [-6.316216, 53.348694]}, "properties": {"xid": "W34886541", "name": "Magazine Fort", "rate": 3, "osm": "way/34886541", "wikidata": "Q13157278", "kinds": "historic_architecture,architecture,fortifications,historic,interesting_places,destroyed_objects,castles"}, "Photo": "http://upload.wikimedia.org/wikipedia/commons/thumb/0/0b/Dublin_Irland-58.jpg/220px-Dublin_Irland-58.jpg", "Website": "https://en.wikipedia.org/w/index.php?title=Magazine_Fort&oldid=896772372"}, {"type": "Feature", "id": "9625305", "geometry": {"type": "Point", "coordinates": [-6.527426, 53.232635]}, "properties": {"xid": "W84198122", "name": "Kilteel Castle", "rate": 3, "osm": "way/84198122", "wikidata": "Q61278426", "kinds": "historic_architecture,architecture,fortifications,historic,monuments_and_memorials,interesting_places,destroyed_objects,castles,monuments"}, "Photo": "http://upload.wikimedia.org/wikipedia/commons/thumb/d/d1/Kilteel_tower-house.JPG/220px-Kilteel_tower-house.JPG", "Website": "null"}, {"type": "Feature", "id": "9625340", "geometry": {"type": "Point", "coordinates": [-6.174796, 53.253124]}, "properties": {"xid": "W118639019", "name": "Carrickmines Castle", "rate": 3, "osm": "way/118639019", "wikidata": "Q5046176", "kinds": "historic_architecture,architecture,fortifications,historic,monuments_and_memorials,interesting_places,destroyed_objects,castles,monuments"}, "Photo": "http://upload.wikimedia.org/wikipedia/commons/thumb/6/6a/January_2004_Carrickminders.jpg/220px-January_2004_Carrickminders.jpg", "Website": "https://de.wikipedia.org/w/index.php?title=Carrickmines_Castle&oldid=182384542"}, {"type": "Feature", "id": "9627293", "geometry": {"type": "Point", "coordinates": [-6.245033, 53.287785]}, "properties": {"xid": "W112490613", "name": "Dundrum Castle", "rate": 3, "osm": "way/112490613", "wikidata": "Q4185827", "kinds": "historic_architecture,architecture,fortifications,historic,monuments_and_memorials,interesting_places,destroyed_objects,castles,monuments"}, "Photo": "http://upload.wikimedia.org/wikipedia/commons/thumb/5/5c/Dundrum_Castle.jpg/220px-Dundrum_Castle.jpg", "Website": "null"}, {"type": "Feature", "id": "9627618", "geometry": {"type": "Point", "coordinates": [-6.441238, 53.621964]}, "properties": {"xid": "W317719022", "name": "Athcarne Castle", "rate": 3, "osm": "way/317719022", "wikidata": "Q19870866", "kinds": "historic_architecture,architecture,fortifications,historic,monuments_and_memorials,interesting_places,destroyed_objects,castles,monuments"}, "Photo": "http://upload.wikimedia.org/wikipedia/commons/thumb/b/be/Athcarne_Castle%2C_Co._Meath_-_geograph.org.uk_-_744437.jpg/220px-Athcarne_Castle%2C_Co._Meath_-_geograph.org.uk_-_744437.jpg", "Website": "null"}, {"type": "Feature", "id": "9644769", "geometry": {"type": "Point", "coordinates": [-6.260519, 53.339645]}, "properties": {"xid": "W611872240", "name": "Fusiliers' Arch", "rate": 3, "osm": "way/611872240", "wikidata": "Q5510051", "kinds": "historic_architecture,architecture,historic,monuments_and_memorials,interesting_places,monuments,triumphal_archs"}, "Photo": "http://upload.wikimedia.org/wikipedia/commons/thumb/9/9c/Fusilier%27s_Arch_-_geograph.org.uk_-_1779821.jpg/220px-Fusilier%27s_Arch_-_geograph.org.uk_-_1779821.jpg", "Website": "https://it.wikipedia.org/w/index.php?title=Fusiliers_Arch&oldid=102981291"}, {"type": "Feature", "id": "9675119", "geometry": {"type": "Point", "coordinates": [-6.330832, 53.324791]}, "properties": {"xid": "W276356071", "name": "Drimnagh Castle Primary School", "rate": 3, "osm": "way/276356071", "wikidata": "Q5307662", "kinds": "fortifications,historic,monuments_and_memorials,interesting_places,castles,monuments"}, "Photo": "http://upload.wikimedia.org/wikipedia/commons/thumb/5/59/Drimnagh_Castle_-_20180302173736.jpg/220px-Drimnagh_Castle_-_20180302173736.jpg", "Website": "null"}, {"type": "Feature", "id": "9687929", "geometry": {"type": "Point", "coordinates": [-6.226309, 53.229042]}, "properties": {"xid": "N1300734014", "name": "Ballyedmonduff Wedge Tomb", "rate": 3, "osm": "node/1300734014", "wikidata": "Q25248226", "kinds": "megaliths,historic,dolmens,monuments_and_memorials,burial_places,archaeology,interesting_places,monuments"}, "Photo": "http://upload.wikimedia.org/wikipedia/commons/thumb/9/94/Ballyedmonduff_Wedge_Tomb.jpg/220px-Ballyedmonduff_Wedge_Tomb.jpg", "Website": "null"}, {"type": "Feature", "id": "9689194", "geometry": {"type": "Point", "coordinates": [-6.265786, 53.337307]}, "properties": {"xid": "N3506865301", "name": "Robert Tressell", "rate": 3, "osm": "node/3506865301", "wikidata": "Q7350472", "kinds": "historic,monuments_and_memorials,interesting_places,monuments"}, "Photo": "http://upload.wikimedia.org/wikipedia/commons/thumb/b/b1/Robert_Tressell.jpg/220px-Robert_Tressell.jpg", "Website": "http://data.bnf.fr/ark:/12148/cb14620641d"}, {"type": "Feature", "id": "9697450", "geometry": {"type": "Point", "coordinates": [-6.164435, 53.444664]}, "properties": {"xid": "R5431617", "name": "Malahide Demesne", "rate": 3, "osm": "relation/5431617", "wikidata": "Q2661381", "kinds": "fortifications,historic,monuments_and_memorials,interesting_places,castles,monuments"}, "Photo": "http://upload.wikimedia.org/wikipedia/commons/thumb/a/ab/Malahide_Castle%2C_March_2011_%283%29.jpg/220px-Malahide_Castle%2C_March_2011_%283%29.jpg", "Website": "http://malahidecastle.com"}, {"type": "Feature", "id": "9699509", "geometry": {"type": "Point", "coordinates": [-6.243175, 53.332352]}, "properties": {"xid": "R5475991", "name": "Baggotrath East", "rate": 3, "osm": "relation/5475991", "wikidata": "Q4841592", "kinds": "fortifications,historic,monuments_and_memorials,interesting_places,castles,monuments"}, "Photo": "http://upload.wikimedia.org/wikipedia/commons/thumb/2/27/Baggotsrath_Castle_%28Co._Dublin%29.jpg/220px-Baggotsrath_Castle_%28Co._Dublin%29.jpg", "Website": "null"}, {"type": "Feature", "id": "9719934", "geometry": {"type": "Point", "coordinates": [-6.267532, 53.342983]}, "properties": {"xid": "N4352867103", "name": "Dublin Castle", "rate": 3, "osm": "node/4352867103", "wikidata": "Q742767", "kinds": "fortifications,historic,monuments_and_memorials,interesting_places,castles,monuments"}, "Photo": "http://upload.wikimedia.org/wikipedia/commons/thumb/f/fb/Dublin_castle.JPG/220px-Dublin_castle.JPG", "Website": "http://dublincastle.ie/"}, {"type": "Feature", "id": "9725636", "geometry": {"type": "Point", "coordinates": [-6.263114, 53.345497]}, "properties": {"xid": "N2986012929", "name": "Temple Bar", "rate": 3, "osm": "node/2986012929", "wikidata": "Q920229", "kinds": "historical_places,historic,interesting_places,historic_districts"}, "Photo": "http://upload.wikimedia.org/wikipedia/commons/thumb/f/f7/TempleBar.JPG/220px-TempleBar.JPG", "Website": "null"}, {"type": "Feature", "id": "9729321", "geometry": {"type": "Point", "coordinates": [-6.268435, 53.343174]}, "properties": {"xid": "W243022013", "name": "Dublin Castle", "rate": 3, "osm": "way/243022013", "wikidata": "Q742767", "kinds": "historic_architecture,palaces,architecture,fortifications,historic,monuments_and_memorials,interesting_places,castles,monuments"}, "Photo": "http://upload.wikimedia.org/wikipedia/commons/thumb/f/fb/Dublin_castle.JPG/220px-Dublin_castle.JPG", "Website": "http://dublincastle.ie/"}, {"type": "Feature", "id": "12407659", "geometry": {"type": "Point", "coordinates": [-6.389957, 53.320812]}, "properties": {"xid": "Q24898682", "name": "Tully's Castle", "rate": 3, "wikidata": "Q24898682", "kinds": "fortifications,historic,monuments_and_memorials,interesting_places,castles,monuments"}, "Photo": "http://upload.wikimedia.org/wikipedia/commons/thumb/6/67/Monastery_Road_and_Tulley%27s_Castle_-_geograph.org.uk_-_811234.jpg/220px-Monastery_Road_and_Tulley%27s_Castle_-_geograph.org.uk_-_811234.jpg", "Website": "null"}, {"type": "Feature", "id": "12582398", "geometry": {"type": "Point", "coordinates": [-6.250056, 53.348045]}, "properties": {"xid": "Q18411659", "name": "Famine", "rate": 3, "wikidata": "Q18411659", "kinds": "historic,monuments_and_memorials,burial_places,interesting_places,other_burial_places,monuments"}, "Photo": "http://upload.wikimedia.org/wikipedia/commons/thumb/9/93/Famine_memorial_dublin.jpg/220px-Famine_memorial_dublin.jpg", "Website": "null"}, {"type": "Feature", "id": "12632450", "geometry": {"type": "Point", "coordinates": [-6.527505, 53.232655]}, "properties": {"xid": "Q29052342", "name": "Kilteel Castle", "rate": 3, "wikidata": "Q29052342", "kinds": "fortifications,historic,monuments_and_memorials,interesting_places,castles,monuments"}, "Photo": "http://upload.wikimedia.org/wikipedia/commons/thumb/d/d1/Kilteel_tower-house.JPG/220px-Kilteel_tower-house.JPG", "Website": "null"}, {"type": "Feature", "id": "12722219", "geometry": {"type": "Point", "coordinates": [-6.266111, 53.342777]}, "properties": {"xid": "Q645776", "name": "Battle of Dublin", "rate": 3, "wikidata": "Q645776", "kinds": "battlefields,historic,historical_places,interesting_places"}, "Photo": "http://upload.wikimedia.org/wikipedia/commons/thumb/d/da/Four_Courts_Conflagration.jpg/220px-Four_Courts_Conflagration.jpg", "Website": "https://en.wikipedia.org/w/index.php?title=Battle_of_Dublin&oldid=946942361"}, {"type": "Feature", "id": "12905281", "geometry": {"type": "Point", "coordinates": [-6.142115, 53.229885]}, "properties": {"xid": "Q1700578", "name": "St Valery\u2019s Cross", "rate": 3, "wikidata": "Q1700578", "kinds": "religion,other_temples,historic,monuments_and_memorials,interesting_places,monuments"}, "Photo": "http://upload.wikimedia.org/wikipedia/commons/thumb/6/67/Fassaroe_Cross_at_Rathmichael.jpg/220px-Fassaroe_Cross_at_Rathmichael.jpg", "Website": "null"}, {"type": "Feature", "id": "12910765", "geometry": {"type": "Point", "coordinates": [-6.6, 53.150002]}, "properties": {"xid": "Q4863408", "name": "Barretstown Castle", "rate": 3, "wikidata": "Q4863408", "kinds": "fortifications,historic,monuments_and_memorials,interesting_places,castles,monuments"}, "Photo": "http://upload.wikimedia.org/wikipedia/commons/thumb/7/70/Castlebarretstown.JPG/220px-Castlebarretstown.JPG", "Website": "null"}, {"type": "Feature", "id": "12946000", "geometry": {"type": "Point", "coordinates": [-6.341545, 53.351154]}, "properties": {"xid": "Q20850483", "name": "Knockmaree Dolmen", "rate": 3, "wikidata": "Q20850483", "kinds": "megaliths,historic,monuments_and_memorials,archaeology,burial_places,dolmens,interesting_places,monuments"}, "Photo": "http://upload.wikimedia.org/wikipedia/commons/thumb/e/e3/Knockmaroon_Tomb_01.jpg/220px-Knockmaroon_Tomb_01.jpg", "Website": "null"}, {"type": "Feature", "id": "13086547", "geometry": {"type": "Point", "coordinates": [-6.113, 53.262699]}, "properties": {"xid": "Q2027374", "name": "Manderley Castle", "rate": 3, "wikidata": "Q2027374", "kinds": "fortifications,historic,monuments_and_memorials,interesting_places,castles,monuments"}, "Photo": "http://upload.wikimedia.org/wikipedia/commons/thumb/b/b7/Killineycastle.jpg/220px-Killineycastle.jpg", "Website": "https://pl.wikipedia.org/w/index.php?title=Zamek_Manderley&oldid=56947277"}, {"type": "Feature", "id": "13266111", "geometry": {"type": "Point", "coordinates": [-6.55723, 53.279949]}, "properties": {"xid": "Q1921015", "name": "Oughter Ard", "rate": 3, "wikidata": "Q1921015", "kinds": "cemeteries,historic,burial_places,interesting_places"}, "Photo": "http://upload.wikimedia.org/wikipedia/commons/thumb/c/c8/Oughterard_Irish_Round_Tower_County_Kildare.JPG/220px-Oughterard_Irish_Round_Tower_County_Kildare.JPG", "Website": "null"}, {"type": "Feature", "id": "13267164", "geometry": {"type": "Point", "coordinates": [-6.260278, 53.349724]}, "properties": {"xid": "Q2350741", "name": "Nelson's Pillar", "rate": 3, "wikidata": "Q2350741", "kinds": "historic,cultural,urban_environment,monuments_and_memorials,burial_places,interesting_places,other_burial_places,sculptures,monuments"}, "Photo": "http://upload.wikimedia.org/wikipedia/commons/thumb/5/5a/Lossy-page1-2658px-Nelson%27s_Pillar%2C_Sackville-Street%2C_Dublin_RMG_PU3914_%28cropped%29.jpg/220px-Lossy-page1-2658px-Nelson%27s_Pillar%2C_Sackville-Street%2C_Dublin_RMG_PU3914_%28cropped%29.jpg", "Website": "https://www.irishcentral.com/opinion/others/three-irish-songs-that-celebrate-the-day-nelson-s-pillar-was-blown-up"}, {"type": "Feature", "id": "13442437", "geometry": {"type": "Point", "coordinates": [-6.264028, 53.353748]}, "properties": {"xid": "Q375501", "name": "Garden of Remembrance", "rate": 3, "wikidata": "Q375501", "kinds": "historic,monuments_and_memorials,burial_places,interesting_places,other_burial_places,monuments"}, "Photo": "http://upload.wikimedia.org/wikipedia/commons/thumb/1/1b/Garden_of_Remembrance_Dublin.jpg/220px-Garden_of_Remembrance_Dublin.jpg", "Website": "null"}, {"type": "Feature", "id": "12537042", "geometry": {"type": "Point", "coordinates": [-6.2675, 53.344166]}, "properties": {"xid": "Q64414898", "name": "Historic City of Dublin", "rate": 6, "wikidata": "Q64414898", "kinds": "historic,historical_places,interesting_places,historic_districts"}, "Photo": "http://upload.wikimedia.org/wikipedia/commons/thumb/f/fb/Dublin_castle.JPG/220px-Dublin_castle.JPG", "Website": "null"}, {"type": "Feature", "id": "755703", "geometry": {"type": "Point", "coordinates": [-6.2414, 53.362827]}, "properties": {"xid": "W705000135", "name": "Ballybough Cemetery", "rate": 2, "osm": "way/705000135", "wikidata": "Q4852004", "kinds": "cemeteries,historic,burial_places,interesting_places"}, "Photo": "http://upload.wikimedia.org/wikipedia/commons/thumb/1/1f/Ballybough_Cemetery_gate_lodge_2020.jpg/220px-Ballybough_Cemetery_gate_lodge_2020.jpg", "Website": "https://en.wikipedia.org/w/index.php?title=Ballybough_Cemetery&oldid=904063989"}, {"type": "Feature", "id": "954117", "geometry": {"type": "Point", "coordinates": [-6.146033, 53.232868]}, "properties": {"xid": "N617578064", "name": "Rathmichael Church", "rate": 2, "osm": "node/617578064", "wikidata": "Q33123184", "kinds": "religion,churches,historic,archaeology,interesting_places,other_archaeological_sites,other_churches"}, "Photo": "http://upload.wikimedia.org/wikipedia/commons/thumb/0/06/IMG_5357RathmichaelChurch.jpg/220px-IMG_5357RathmichaelChurch.jpg", "Website": "null"}, {"type": "Feature", "id": "1100326", "geometry": {"type": "Point", "coordinates": [-6.394785, 53.186226]}, "properties": {"xid": "N1137319737", "name": "Seefin Cairn", "rate": 2, "osm": "node/1137319737", "wikidata": "Q1342842", "kinds": "megaliths,historic,archaeology,interesting_places"}, "Photo": "http://upload.wikimedia.org/wikipedia/commons/thumb/b/b8/Seefin_Passage_Tomb.jpg/220px-Seefin_Passage_Tomb.jpg", "Website": "null"}, {"type": "Feature", "id": "3697809", "geometry": {"type": "Point", "coordinates": [-6.255178, 53.349358]}, "properties": {"xid": "N3772654582", "name": "Chariot of Life", "rate": 2, "osm": "node/3772654582", "wikidata": "Q55049887", "kinds": "historic,monuments_and_memorials,urban_environment,cultural,interesting_places,sculptures,monuments"}, "Photo": "http://upload.wikimedia.org/wikipedia/commons/thumb/b/b4/County_Dublin_-_Chariot_of_Life_%28Dublin%29_-_20180908220916.jpg/220px-County_Dublin_-_Chariot_of_Life_%28Dublin%29_-_20180908220916.jpg", "Website": "null"}, {"type": "Feature", "id": "3707989", "geometry": {"type": "Point", "coordinates": [-6.329015, 53.283436]}, "properties": {"xid": "W52599063", "name": "Knocklyon Castle", "rate": 2, "osm": "way/52599063", "wikidata": "Q30970269", "kinds": "fortifications,historical_places,historic,monuments_and_memorials,interesting_places,historic_districts,castles,monuments"}, "Photo": "null", "Website": "null"}, {"type": "Feature", "id": "3744653", "geometry": {"type": "Point", "coordinates": [-6.274013, 53.343956]}, "properties": {"xid": "N635060745", "name": "Saint Audoen's Gate", "rate": 2, "osm": "node/635060745", "wikidata": "Q6569378", "kinds": "fortifications,defensive_walls,historic,interesting_places"}, "Photo": "null", "Website": "null"}, {"type": "Feature", "id": "3862706", "geometry": {"type": "Point", "coordinates": [-6.247856, 53.357864]}, "properties": {"xid": "N3477797884", "name": "Tony Gregory TD", "rate": 2, "osm": "node/3477797884", "wikidata": "Q278830", "kinds": "historic,monuments_and_memorials,interesting_places,monuments"}, "Photo": "null", "Website": "http://www.irishtimes.com/newspaper/breaking/2009/0102/breaking28.htm"}, {"type": "Feature", "id": "3863074", "geometry": {"type": "Point", "coordinates": [-6.25985, 53.330654]}, "properties": {"xid": "N5303844909", "name": "Paul Smith", "rate": 2, "osm": "node/5303844909", "wikidata": "Q7153651", "kinds": "historic,monuments_and_memorials,interesting_places,monuments"}, "Photo": "http://upload.wikimedia.org/wikipedia/commons/thumb/0/07/Paul-smith-memorial.jpg/220px-Paul-smith-memorial.jpg", "Website": "null"}, {"type": "Feature", "id": "3882468", "geometry": {"type": "Point", "coordinates": [-6.26054, 53.34938]}, "properties": {"xid": "N603843067", "name": "C\u00fachulainn", "rate": 2, "osm": "node/603843067", "kinds": "historic,monuments_and_memorials,interesting_places,monuments"}, "Photo": "null", "Website": "null"}, {"type": "Feature", "id": "3887531", "geometry": {"type": "Point", "coordinates": [-6.261477, 53.352592]}, "properties": {"xid": "N906593798", "name": "Charles Stewart Parnell Monument", "rate": 2, "osm": "node/906593798", "wikidata": "Q33123187", "kinds": "historic,monuments_and_memorials,interesting_places,monuments"}, "Photo": "http://upload.wikimedia.org/wikipedia/commons/thumb/d/dd/Parnell_from_beneath.jpg/220px-Parnell_from_beneath.jpg", "Website": "null"}, {"type": "Feature", "id": "3941615", "geometry": {"type": "Point", "coordinates": [-6.26634, 53.343895]}, "properties": {"xid": "N3559946599", "name": "The Sick and Indigent Roomkeepers' Society", "rate": 2, "osm": "node/3559946599", "wikidata": "Q7764091", "kinds": "historic,monuments_and_memorials,interesting_places,monuments"}, "Photo": "null", "Website": "null"}, {"type": "Feature", "id": "3941901", "geometry": {"type": "Point", "coordinates": [-6.25342, 53.352146]}, "properties": {"xid": "N3579557632", "name": "1913 Lockout", "rate": 2, "osm": "node/3579557632", "wikidata": "Q448920", "kinds": "historic,monuments_and_memorials,interesting_places,monuments"}, "Photo": "null", "Website": "https://github.com/JohnMarkOckerbloom/ftl/blob/master/data/wikimap"}, {"type": "Feature", "id": "3943936", "geometry": {"type": "Point", "coordinates": [-6.240908, 53.358585]}, "properties": {"xid": "N3676901217", "name": "Seamus Costello", "rate": 2, "osm": "node/3676901217", "wikidata": "Q1780947", "kinds": "historic,monuments_and_memorials,interesting_places,monuments"}, "Photo": "null", "Website": "http://viaf.org/viaf/data/viaf-20170101-links.txt.gz"}, {"type": "Feature", "id": "3946478", "geometry": {"type": "Point", "coordinates": [-6.290157, 53.366211]}, "properties": {"xid": "N3780394071", "name": "1981 Hunger Strikers", "rate": 2, "osm": "node/3780394071", "wikidata": "Q1417338", "kinds": "historic,monuments_and_memorials,interesting_places,monuments"}, "Photo": "null", "Website": "https://github.com/JohnMarkOckerbloom/ftl/blob/master/data/wikimap"}, {"type": "Feature", "id": "3996478", "geometry": {"type": "Point", "coordinates": [-6.259582, 53.348244]}, "properties": {"xid": "N6279642664", "name": "William Smith O'Brien Monument", "rate": 2, "osm": "node/6279642664", "wikidata": "Q55049882", "kinds": "historic,monuments_and_memorials,interesting_places,monuments"}, "Photo": "http://upload.wikimedia.org/wikipedia/commons/thumb/2/27/William_Smith_O%E2%80%99Brien_Statue_Dublin_2009_09_27.JPG/220px-William_Smith_O%E2%80%99Brien_Statue_Dublin_2009_09_27.JPG", "Website": "null"}, {"type": "Feature", "id": "4004198", "geometry": {"type": "Point", "coordinates": [-6.277542, 53.33976]}, "properties": {"xid": "W437449561", "name": "Coombe Hospital Memorial", "rate": 2, "osm": "way/437449561", "wikidata": "Q5167610", "kinds": "historic,monuments_and_memorials,interesting_places,monuments"}, "Photo": "http://upload.wikimedia.org/wikipedia/commons/thumb/d/d6/Coombe_Hospital_Monument.jpg/220px-Coombe_Hospital_Monument.jpg", "Website": "https://en.wikipedia.org/w/index.php?title=Coombe_Women_&_Infants_University_Hospital&oldid=899057174"}, {"type": "Feature", "id": "4014694", "geometry": {"type": "Point", "coordinates": [-6.124016, 53.299877]}, "properties": {"xid": "N6184842846", "name": "", "rate": 2, "osm": "node/6184842846", "wikidata": "Q5631241", "kinds": "historic,monuments_and_memorials,urban_environment,cultural,interesting_places,sculptures,monuments"}, "Photo": "http://upload.wikimedia.org/wikipedia/commons/thumb/1/12/HMS_AJAX_AT_KINGSTOWN.jpg/220px-HMS_AJAX_AT_KINGSTOWN.jpg", "Website": "https://en.wikipedia.org/w/index.php?title=HMS_Ajax_(1809)&oldid=845502465"}, {"type": "Feature", "id": "4028575", "geometry": {"type": "Point", "coordinates": [-6.104569, 53.521389]}, "properties": {"xid": "N2280747837", "name": "Rush Windmill Tower (ruin)", "rate": 2, "osm": "node/2280747837", "wikidata": "Q33123128", "kinds": "historic,archaeology,interesting_places,other_archaeological_sites"}, "Photo": "http://upload.wikimedia.org/wikipedia/commons/thumb/c/cf/County_Dublin_-_Rush_Windmill_-_20190609153453.jpg/220px-County_Dublin_-_Rush_Windmill_-_20190609153453.jpg", "Website": "null"}, {"type": "Feature", "id": "4039173", "geometry": {"type": "Point", "coordinates": [-6.565215, 53.218052]}, "properties": {"xid": "W670696281", "name": "Rathmore Motte", "rate": 2, "osm": "way/670696281", "wikidata": "Q17984828", "kinds": "historic,archaeology,interesting_places,other_archaeological_sites"}, "Photo": "null", "Website": "https://en.wikipedia.org/w/index.php?title=Rathmore,_County_Kildare&oldid=857928025"}, {"type": "Feature", "id": "4040131", "geometry": {"type": "Point", "coordinates": [-6.122325, 53.245113]}, "properties": {"xid": "N311290122", "name": "Ballybrack Portal Tomb", "rate": 2, "osm": "node/311290122", "wikidata": "Q20758237", "kinds": "megaliths,historic,dolmens,monuments_and_memorials,burial_places,archaeology,interesting_places,monuments"}, "Photo": "http://upload.wikimedia.org/wikipedia/commons/thumb/8/8c/County_Dublin_-_Ballybrack_Dolmen_-_20180915164520.jpg/220px-County_Dublin_-_Ballybrack_Dolmen_-_20180915164520.jpg", "Website": "null"}, {"type": "Feature", "id": "4216409", "geometry": {"type": "Point", "coordinates": [-6.118872, 53.221283]}, "properties": {"xid": "W29597236", "name": "Shanganagh Cemetery", "rate": 2, "osm": "way/29597236", "wikidata": "Q22084251", "kinds": "cemeteries,historic,burial_places,interesting_places"}, "Photo": "null", "Website": "null"}, {"type": "Feature", "id": "5370224", "geometry": {"type": "Point", "coordinates": [-6.206928, 53.325176]}, "properties": {"xid": "W53085944", "name": "Martello Tower No.16 Sandymount", "rate": 2, "osm": "way/53085944", "wikidata": "Q966849", "kinds": "fortifications,historic,interesting_places,castles"}, "Photo": "null", "Website": "null"}, {"type": "Feature", "id": "5429797", "geometry": {"type": "Point", "coordinates": [-6.154926, 53.230972]}, "properties": {"xid": "W111504901", "name": "Pucks Castle", "rate": 2, "osm": "way/111504901", "wikidata": "Q30970320", "kinds": "historic_architecture,architecture,fortifications,historic,monuments_and_memorials,interesting_places,destroyed_objects,castles,monuments"}, "Photo": "http://upload.wikimedia.org/wikipedia/commons/thumb/8/8a/Puck%27s_Castle%2C_Co._Dublin%2C_Ireland.JPG/220px-Puck%27s_Castle%2C_Co._Dublin%2C_Ireland.JPG", "Website": "null"}, {"type": "Feature", "id": "5521744", "geometry": {"type": "Point", "coordinates": [-6.395375, 53.322044]}, "properties": {"xid": "N1811910704", "name": "Clondalkin Round Tower", "rate": 2, "osm": "node/1811910704", "wikidata": "Q24896274", "kinds": "towers,architecture,fortifications,historic,interesting_places,other_towers,fortified_towers"}, "Photo": "null", "Website": "null"}, {"type": "Feature", "id": "9262509", "geometry": {"type": "Point", "coordinates": [-6.102766, 53.584885]}, "properties": {"xid": "N5302060475", "name": "Red Island", "rate": 2, "osm": "node/5302060475", "wikidata": "Q33123094", "kinds": "fortifications,historic,interesting_places,other_fortifications"}, "Photo": "http://upload.wikimedia.org/wikipedia/commons/thumb/c/c3/Martello_Tower_on_Red_Island_in_Skerries%2C_from_The_Strand_at_low_tide.jpg/220px-Martello_Tower_on_Red_Island_in_Skerries%2C_from_The_Strand_at_low_tide.jpg", "Website": "null"}, {"type": "Feature", "id": "9467327", "geometry": {"type": "Point", "coordinates": [-6.102416, 53.584579]}, "properties": {"xid": "W299254958", "name": "Martello Tower", "rate": 2, "osm": "way/299254958", "wikidata": "Q55049512", "kinds": "historic_architecture,towers,architecture,fortifications,historic,interesting_places,destroyed_objects,other_fortifications,other_towers"}, "Photo": "http://upload.wikimedia.org/wikipedia/commons/thumb/c/cc/County_Dublin_-_Skerries_Martello_Tower_-_20180325145156.jpg/220px-County_Dublin_-_Skerries_Martello_Tower_-_20180325145156.jpg", "Website": "null"}, {"type": "Feature", "id": "9488108", "geometry": {"type": "Point", "coordinates": [-6.255249, 53.350643]}, "properties": {"xid": "N3579557634", "name": "Dublin and Monaghan Bombings", "rate": 2, "osm": "node/3579557634", "wikidata": "Q2870015", "kinds": "historic,monuments_and_memorials,interesting_places,monuments"}, "Photo": "null", "Website": "https://es.wikipedia.org/w/index.php?title=Atentados_de_Dubl\u00edn_y_Monaghan&oldid=118035535"}, {"type": "Feature", "id": "9489323", "geometry": {"type": "Point", "coordinates": [-6.225194, 53.323456]}, "properties": {"xid": "N4031990412", "name": "Arkle", "rate": 2, "osm": "node/4031990412", "wikidata": "Q2861580", "kinds": "historic,monuments_and_memorials,interesting_places,monuments"}, "Photo": "null", "Website": "https://ja.wikipedia.org/w/index.php?title=\u30a2\u30fc\u30af\u30eb&oldid=69938836"}, {"type": "Feature", "id": "9535944", "geometry": {"type": "Point", "coordinates": [-6.063763, 53.387608]}, "properties": {"xid": "W104682315", "name": "Martello Tower", "rate": 2, "osm": "way/104682315", "wikidata": "Q55049731", "kinds": "towers,architecture,fortifications,historic,museums,cultural,interesting_places,museums_of_science_and_technology,other_technology_museums,other_towers,fortified_towers"}, "Photo": "http://upload.wikimedia.org/wikipedia/commons/thumb/c/c7/Martello_tower_-near_Howth_-Ireland-3Sept2008.jpg/220px-Martello_tower_-near_Howth_-Ireland-3Sept2008.jpg", "Website": "https://hurdygurdyradiomuseum.wordpress.com/"}, {"type": "Feature", "id": "9537300", "geometry": {"type": "Point", "coordinates": [-6.250474, 53.351364]}, "properties": {"xid": "N603892920", "name": "1974 Dublin and Monaghan Bombings Memorial", "rate": 2, "osm": "node/603892920", "wikidata": "Q2870015", "kinds": "historic,monuments_and_memorials,interesting_places,monuments"}, "Photo": "null", "Website": "https://es.wikipedia.org/w/index.php?title=Atentados_de_Dubl\u00edn_y_Monaghan&oldid=118035535"}, {"type": "Feature", "id": "9537477", "geometry": {"type": "Point", "coordinates": [-6.250289, 53.354095]}, "properties": {"xid": "N3579222549", "name": "Irish Citizen Army", "rate": 2, "osm": "node/3579222549", "wikidata": "Q1190570", "kinds": "historic,monuments_and_memorials,interesting_places,monuments"}, "Photo": "null", "Website": "null"}, {"type": "Feature", "id": "9537478", "geometry": {"type": "Point", "coordinates": [-6.253262, 53.35149]}, "properties": {"xid": "N3579222574", "name": "Phil Shanahan", "rate": 2, "osm": "node/3579222574", "wikidata": "Q7184364", "kinds": "historic,monuments_and_memorials,interesting_places,monuments"}, "Photo": "null", "Website": "https://www.oireachtas.ie/en/members/member/Philip-Shanahan.D.1919-01-21"}, {"type": "Feature", "id": "9541075", "geometry": {"type": "Point", "coordinates": [-6.332296, 53.37196]}, "properties": {"xid": "N3342267914", "name": "Martin Savage Memorial Monument", "rate": 2, "osm": "node/3342267914", "wikidata": "Q6776531", "kinds": "historic,monuments_and_memorials,interesting_places,monuments"}, "Photo": "null", "Website": "https://en.wikipedia.org/w/index.php?title=Martin_Savage&oldid=931512539"}, {"type": "Feature", "id": "9541169", "geometry": {"type": "Point", "coordinates": [-6.245481, 53.355427]}, "properties": {"xid": "N3677043348", "name": "Bombing of the North Strand", "rate": 2, "osm": "node/3677043348", "wikidata": "Q4940694", "kinds": "historic,monuments_and_memorials,interesting_places,monuments"}, "Photo": "null", "Website": "https://github.com/JohnMarkOckerbloom/ftl/blob/master/data/wikimap"}, {"type": "Feature", "id": "9541470", "geometry": {"type": "Point", "coordinates": [-6.265192, 53.34491]}, "properties": {"xid": "N4608973691", "name": "The Diceman's Corner", "rate": 2, "osm": "node/4608973691", "wikidata": "Q7786733", "kinds": "historic,monuments_and_memorials,interesting_places,monuments"}, "Photo": "null", "Website": "null"}, {"type": "Feature", "id": "9541706", "geometry": {"type": "Point", "coordinates": [-6.266381, 53.338562]}, "properties": {"xid": "N5305642485", "name": "Irish Citizen Army", "rate": 2, "osm": "node/5305642485", "wikidata": "Q1190570", "kinds": "historic,monuments_and_memorials,interesting_places,monuments"}, "Photo": "null", "Website": "null"}, {"type": "Feature", "id": "9542110", "geometry": {"type": "Point", "coordinates": [-6.541331, 53.161526]}, "properties": {"xid": "N6305566845", "name": "St. Mark's Cross", "rate": 2, "osm": "node/6305566845", "wikidata": "Q28195927", "kinds": "historic,monuments_and_memorials,interesting_places,monuments"}, "Photo": "http://upload.wikimedia.org/wikipedia/commons/thumb/a/a8/St._Marks_Cross.jpg/220px-St._Marks_Cross.jpg", "Website": "null"}, {"type": "Feature", "id": "9542699", "geometry": {"type": "Point", "coordinates": [-6.264313, 53.354195]}, "properties": {"xid": "N5584369315", "name": "Miami Showband Killings", "rate": 2, "osm": "node/5584369315", "wikidata": "Q3777641", "kinds": "historic,monuments_and_memorials,urban_environment,cultural,interesting_places,sculptures,monuments"}, "Photo": "null", "Website": "https://en.wikipedia.org/w/index.php?title=Miami_Showband_killings&oldid=1010714193"}, {"type": "Feature", "id": "9546175", "geometry": {"type": "Point", "coordinates": [-6.310453, 53.261372]}, "properties": {"xid": "N2578251196", "name": "Mount Venus Dolmen", "rate": 2, "osm": "node/2578251196", "wikidata": "Q2104938", "kinds": "megaliths,historic,monuments_and_memorials,archaeology,interesting_places,monuments"}, "Photo": "null", "Website": "null"}, {"type": "Feature", "id": "9549492", "geometry": {"type": "Point", "coordinates": [-6.094241, 53.378506]}, "properties": {"xid": "W27500098", "name": "St Fintan's Cemetery", "rate": 2, "osm": "way/27500098", "wikidata": "Q7587914", "kinds": "cemeteries,historic,burial_places,interesting_places"}, "Photo": "http://upload.wikimedia.org/wikipedia/commons/thumb/c/cf/Fintans-church-sutton-adamkeegan.jpg/220px-Fintans-church-sutton-adamkeegan.jpg", "Website": "null"}, {"type": "Feature", "id": "9601829", "geometry": {"type": "Point", "coordinates": [-6.115362, 53.478325]}, "properties": {"xid": "W57781909", "name": "Martello Tower", "rate": 2, "osm": "way/57781909", "wikidata": "Q55049628", "kinds": "towers,architecture,fortifications,historic,interesting_places,other_fortifications,other_towers"}, "Photo": "http://upload.wikimedia.org/wikipedia/commons/thumb/1/16/County_Dublin_-_Balcarrick_Martello_Tower_-_20180706180754.jpg/220px-County_Dublin_-_Balcarrick_Martello_Tower_-_20180706180754.jpg", "Website": "null"}, {"type": "Feature", "id": "9628274", "geometry": {"type": "Point", "coordinates": [-6.15987, 53.297867]}, "properties": {"xid": "W94871541", "name": "Martello Tower No.14 - Seapoint", "rate": 2, "osm": "way/94871541", "wikidata": "Q7441586", "kinds": "towers,architecture,fortifications,historic,interesting_places,other_towers,fortified_towers"}, "Photo": "null", "Website": "null"}, {"type": "Feature", "id": "9682303", "geometry": {"type": "Point", "coordinates": [-6.260285, 53.347446]}, "properties": {"xid": "W227766040", "name": "O'Connell's", "rate": 2, "osm": "way/227766040", "wikidata": "Q33123185", "kinds": "historic,monuments_and_memorials,interesting_places,pubs,foods,monuments,tourist_facilities"}, "Photo": "http://upload.wikimedia.org/wikipedia/commons/thumb/c/cb/Daniel_O%27Connell_statue_1998-1.jpg/220px-Daniel_O%27Connell_statue_1998-1.jpg", "Website": "null"}, {"type": "Feature", "id": "9687209", "geometry": {"type": "Point", "coordinates": [-6.085763, 53.573727]}, "properties": {"xid": "N472729553", "name": "Martello Tower", "rate": 2, "osm": "node/472729553", "wikidata": "Q55049525", "kinds": "historic_architecture,towers,architecture,fortifications,historic,interesting_places,destroyed_objects,other_fortifications,other_towers"}, "Photo": "http://upload.wikimedia.org/wikipedia/commons/thumb/2/23/County_Dublin_-_Shenick%27s_Island_Martello_Tower_-_20180325151846.jpg/220px-County_Dublin_-_Shenick%27s_Island_Martello_Tower_-_20180325151846.jpg", "Website": "null"}, {"type": "Feature", "id": "9688784", "geometry": {"type": "Point", "coordinates": [-6.078671, 53.540695]}, "properties": {"xid": "N2464057149", "name": "Drumanagh Promontory Fort", "rate": 2, "osm": "node/2464057149", "wikidata": "Q1261245", "kinds": "historic,archaeology,interesting_places,other_archaeological_sites"}, "Photo": "null", "Website": "null"}, {"type": "Feature", "id": "9699525", "geometry": {"type": "Point", "coordinates": [-6.084017, 53.572643]}, "properties": {"xid": "R5571369", "name": "Shenick's Island", "rate": 2, "osm": "relation/5571369", "wikidata": "Q55049525", "kinds": "fortifications,historic,interesting_places,other_fortifications"}, "Photo": "http://upload.wikimedia.org/wikipedia/commons/thumb/2/23/County_Dublin_-_Shenick%27s_Island_Martello_Tower_-_20180325151846.jpg/220px-County_Dublin_-_Shenick%27s_Island_Martello_Tower_-_20180325151846.jpg", "Website": "null"}, {"type": "Feature", "id": "12404824", "geometry": {"type": "Point", "coordinates": [-6.48639, 53.213612]}, "properties": {"xid": "Q21662423", "name": "Leixlip Castle", "rate": 2, "wikidata": "Q21662423", "kinds": "fortifications,historic,monuments_and_memorials,interesting_places,castles,monuments"}, "Photo": "null", "Website": "null"}, {"type": "Feature", "id": "12522628", "geometry": {"type": "Point", "coordinates": [-6.45257, 53.356831]}, "properties": {"xid": "Q55049416", "name": "Sarsfield Monument", "rate": 2, "wikidata": "Q55049416", "kinds": "historic,monuments_and_memorials,interesting_places,monuments"}, "Photo": "http://upload.wikimedia.org/wikipedia/commons/thumb/b/b2/County_Dublin_-_Sarsfield_Monument_-_20180814211630.jpg/220px-County_Dublin_-_Sarsfield_Monument_-_20180814211630.jpg", "Website": "null"}, {"type": "Feature", "id": "12538030", "geometry": {"type": "Point", "coordinates": [-6.279561, 53.370911]}, "properties": {"xid": "Q65115228", "name": "16th Irish Division Memorial", "rate": 2, "wikidata": "Q65115228", "kinds": "historic,monuments_and_memorials,burial_places,interesting_places,other_burial_places,monuments"}, "Photo": "http://upload.wikimedia.org/wikipedia/commons/thumb/7/76/16th_Irish_Division_Memorial_Glasnevin_Cemetery.jpg/220px-16th_Irish_Division_Memorial_Glasnevin_Cemetery.jpg", "Website": "null"}, {"type": "Feature", "id": "12632451", "geometry": {"type": "Point", "coordinates": [-6.206675, 53.364754]}, "properties": {"xid": "Q29052347", "name": "Conn Castle", "rate": 2, "wikidata": "Q29052347", "kinds": "fortifications,historic,monuments_and_memorials,interesting_places,castles,monuments"}, "Photo": "null", "Website": "null"}, {"type": "Feature", "id": "12701811", "geometry": {"type": "Point", "coordinates": [-6.43778, 53.274242]}, "properties": {"xid": "Q51076131", "name": "Steinpaar von Boherboy", "rate": 2, "wikidata": "Q51076131", "kinds": "megaliths,historic,monuments_and_memorials,archaeology,interesting_places,monuments"}, "Photo": "null", "Website": "null"}, {"type": "Feature", "id": "12703179", "geometry": {"type": "Point", "coordinates": [-6.0671, 53.403358]}, "properties": {"xid": "Q55049742", "name": "Ireland's Eye Martello Tower", "rate": 2, "wikidata": "Q55049742", "kinds": "fortifications,historic,interesting_places,other_fortifications"}, "Photo": "http://upload.wikimedia.org/wikipedia/commons/thumb/d/d1/County_Dublin_-_Ireland%27s_Eye_Martello_Tower_-_20180627190522.jpg/220px-County_Dublin_-_Ireland%27s_Eye_Martello_Tower_-_20180627190522.jpg", "Website": "null"}, {"type": "Feature", "id": "12703182", "geometry": {"type": "Point", "coordinates": [-6.25006, 53.34803]}, "properties": {"xid": "Q55049893", "name": "Famine (Dublin)", "rate": 2, "wikidata": "Q55049893", "kinds": "historic,monuments_and_memorials,interesting_places,monuments"}, "Photo": "http://upload.wikimedia.org/wikipedia/commons/thumb/7/74/County_Dublin_-_Famine_%28Dublin%29_-_20180824203248.jpg/220px-County_Dublin_-_Famine_%28Dublin%29_-_20180824203248.jpg", "Website": "null"}, {"type": "Feature", "id": "12764030", "geometry": {"type": "Point", "coordinates": [-6.082144, 53.379227]}, "properties": {"xid": "Q19819020", "name": "Aideen\u2019s Grave", "rate": 2, "wikidata": "Q19819020", "kinds": "historic,archaeology,interesting_places,other_archaeological_sites"}, "Photo": "null", "Website": "null"}, {"type": "Feature", "id": "12844965", "geometry": {"type": "Point", "coordinates": [-6.094183, 53.538979]}, "properties": {"xid": "Q33123115", "name": "Rush Demense Castle", "rate": 2, "wikidata": "Q33123115", "kinds": "fortifications,historic,monuments_and_memorials,interesting_places,castles,monuments"}, "Photo": "http://upload.wikimedia.org/wikipedia/commons/thumb/4/43/Into_Darkness_Rush_Castle.JPG/220px-Into_Darkness_Rush_Castle.JPG", "Website": "null"}, {"type": "Feature", "id": "12945968", "geometry": {"type": "Point", "coordinates": [-6.211, 53.174774]}, "properties": {"xid": "Q20758256", "name": "Portal Tomb von Onagh", "rate": 2, "wikidata": "Q20758256", "kinds": "megaliths,historic,monuments_and_memorials,archaeology,burial_places,dolmens,interesting_places,monuments"}, "Photo": "null", "Website": "null"}, {"type": "Feature", "id": "13022992", "geometry": {"type": "Point", "coordinates": [-6.178135, 53.483067]}, "properties": {"xid": "Q30970279", "name": "Lanestown Castle", "rate": 2, "wikidata": "Q30970279", "kinds": "fortifications,historic,monuments_and_memorials,interesting_places,castles,monuments"}, "Photo": "null", "Website": "null"}, {"type": "Feature", "id": "13064267", "geometry": {"type": "Point", "coordinates": [-6.30674, 53.34272]}, "properties": {"xid": "Q55046180", "name": "Bully's Acre", "rate": 2, "wikidata": "Q55046180", "kinds": "cemeteries,historic,burial_places,interesting_places"}, "Photo": "http://upload.wikimedia.org/wikipedia/commons/thumb/1/10/Bullysacre03.JPG/220px-Bullysacre03.JPG", "Website": "null"}, {"type": "Feature", "id": "13064318", "geometry": {"type": "Point", "coordinates": [-6.441, 53.353451]}, "properties": {"xid": "Q55049390", "name": "Esker Burial Ground", "rate": 2, "wikidata": "Q55049390", "kinds": "cemeteries,historic,burial_places,interesting_places"}, "Photo": "http://upload.wikimedia.org/wikipedia/commons/thumb/b/be/County_Dublin_-_Esker_Burial_Ground_-_20180814210717.jpg/220px-County_Dublin_-_Esker_Burial_Ground_-_20180814210717.jpg", "Website": "null"}, {"type": "Feature", "id": "13079683", "geometry": {"type": "Point", "coordinates": [-6.2782, 53.370098]}, "properties": {"xid": "Q65119414", "name": "Cardinal MacCabe Memorial", "rate": 2, "wikidata": "Q65119414", "kinds": "historic,monuments_and_memorials,burial_places,interesting_places,other_burial_places,monuments"}, "Photo": "http://upload.wikimedia.org/wikipedia/commons/thumb/c/c3/Glasnevin_6.jpg/220px-Glasnevin_6.jpg", "Website": "null"}, {"type": "Feature", "id": "13079771", "geometry": {"type": "Point", "coordinates": [-6.255556, 53.36861]}, "properties": {"xid": "Q65553341", "name": "Drumcondra Church churchyard", "rate": 2, "wikidata": "Q65553341", "kinds": "cemeteries,historic,burial_places,interesting_places"}, "Photo": "http://upload.wikimedia.org/wikipedia/commons/thumb/6/6b/Drumcondra-church-1790.jpg/220px-Drumcondra-church-1790.jpg", "Website": "null"}, {"type": "Feature", "id": "13083770", "geometry": {"type": "Point", "coordinates": [-6.226194, 53.229168]}, "properties": {"xid": "Q805402", "name": "Ballyedmonduff", "rate": 2, "wikidata": "Q805402", "kinds": "historic,archaeology,interesting_places,other_archaeological_sites"}, "Photo": "http://upload.wikimedia.org/wikipedia/commons/thumb/9/94/Ballyedmonduff_Wedge_Tomb.jpg/220px-Ballyedmonduff_Wedge_Tomb.jpg", "Website": "null"}, {"type": "Feature", "id": "13089982", "geometry": {"type": "Point", "coordinates": [-6.366, 53.368198]}, "properties": {"xid": "Q3752934", "name": "Zamek w Castleknock", "rate": 2, "wikidata": "Q3752934", "kinds": "fortifications,historic,monuments_and_memorials,interesting_places,castles,monuments"}, "Photo": "null", "Website": "null"}, {"type": "Feature", "id": "13213193", "geometry": {"type": "Point", "coordinates": [-6.546788, 53.338772]}, "properties": {"xid": "Q38250962", "name": "Tea Lane Graveyard", "rate": 2, "wikidata": "Q38250962", "kinds": "cemeteries,historic,burial_places,interesting_places"}, "Photo": "http://upload.wikimedia.org/wikipedia/commons/thumb/a/a6/Tea_Lane_church_3.jpg/220px-Tea_Lane_church_3.jpg", "Website": "https://en.wikipedia.org/w/index.php?title=Tea_Lane_Graveyard&oldid=859712583"}, {"type": "Feature", "id": "13244317", "geometry": {"type": "Point", "coordinates": [-6.25972, 53.34853]}, "properties": {"xid": "Q55049884", "name": "Sir John Gray monument", "rate": 2, "wikidata": "Q55049884", "kinds": "historic,monuments_and_memorials,interesting_places,monuments"}, "Photo": "http://upload.wikimedia.org/wikipedia/commons/thumb/f/fc/County_Dublin_-_Sir_John_Gray_monument_-_20180825003240.jpg/220px-County_Dublin_-_Sir_John_Gray_monument_-_20180825003240.jpg", "Website": "null"}, {"type": "Feature", "id": "13285043", "geometry": {"type": "Point", "coordinates": [-6.412072, 53.263336]}, "properties": {"xid": "Q15832970", "name": "Lugmore Hill", "rate": 2, "wikidata": "Q15832970", "kinds": "megaliths,historic,monuments_and_memorials,archaeology,burial_places,dolmens,interesting_places,monuments"}, "Photo": "null", "Website": "null"}, {"type": "Feature", "id": "13385146", "geometry": {"type": "Point", "coordinates": [-6.122323, 53.245152]}, "properties": {"xid": "Q33123177", "name": "Ballybrack Dolmen", "rate": 2, "wikidata": "Q33123177", "kinds": "megaliths,historic,monuments_and_memorials,archaeology,burial_places,dolmens,interesting_places,monuments"}, "Photo": "http://upload.wikimedia.org/wikipedia/commons/thumb/8/8c/County_Dublin_-_Ballybrack_Dolmen_-_20180915164520.jpg/220px-County_Dublin_-_Ballybrack_Dolmen_-_20180915164520.jpg", "Website": "null"}, {"type": "Feature", "id": "13385148", "geometry": {"type": "Point", "coordinates": [-6.08015, 53.379745]}, "properties": {"xid": "Q33123179", "name": "Aideens Grave", "rate": 2, "wikidata": "Q33123179", "kinds": "megaliths,historic,monuments_and_memorials,archaeology,burial_places,dolmens,interesting_places,monuments"}, "Photo": "http://upload.wikimedia.org/wikipedia/commons/thumb/3/39/Howt_-_Aideens_Grave_Portal_Tomb_ps.jpg/220px-Howt_-_Aideens_Grave_Portal_Tomb_ps.jpg", "Website": "null"}, {"type": "Feature", "id": "13434835", "geometry": {"type": "Point", "coordinates": [-6.246409, 53.370228]}, "properties": {"xid": "Q60520799", "name": "Drumcondra Castle", "rate": 2, "wikidata": "Q60520799", "kinds": "fortifications,historic,monuments_and_memorials,interesting_places,castles,monuments"}, "Photo": "null", "Website": "null"}, {"type": "Feature", "id": "13456559", "geometry": {"type": "Point", "coordinates": [-6.561537, 53.583019]}, "properties": {"xid": "Q7536686", "name": "Skryne Castle", "rate": 2, "wikidata": "Q7536686", "kinds": "fortifications,historic,monuments_and_memorials,interesting_places,castles,monuments"}, "Photo": "null", "Website": "null"}, {"type": "Feature", "id": "13565440", "geometry": {"type": "Point", "coordinates": [-6.146122, 53.437443]}, "properties": {"xid": "Q33123159", "name": "Saint Helens Castle", "rate": 2, "wikidata": "Q33123159", "kinds": "fortifications,historic,monuments_and_memorials,interesting_places,castles,monuments"}, "Photo": "http://upload.wikimedia.org/wikipedia/commons/thumb/3/31/Saint_Helens_Motte_%26_Bailey_Closeup.JPG/220px-Saint_Helens_Motte_%26_Bailey_Closeup.JPG", "Website": "null"}, {"type": "Feature", "id": "13603315", "geometry": {"type": "Point", "coordinates": [-6.509911, 53.1516]}, "properties": {"xid": "Q51076236", "name": "Wedge Tomb von Carrig", "rate": 2, "wikidata": "Q51076236", "kinds": "megaliths,historic,monuments_and_memorials,archaeology,interesting_places,monuments"}, "Photo": "null", "Website": "null"}, {"type": "Feature", "id": "13604746", "geometry": {"type": "Point", "coordinates": [-6.26079, 53.350979]}, "properties": {"xid": "Q55049879", "name": "Father Mathew monument", "rate": 2, "wikidata": "Q55049879", "kinds": "historic,cultural,urban_environment,monuments_and_memorials,interesting_places,sculptures,monuments"}, "Photo": "http://upload.wikimedia.org/wikipedia/commons/thumb/5/56/Father_Mathew_Statue_O%27Connell_Street.JPG/220px-Father_Mathew_Statue_O%27Connell_Street.JPG", "Website": "null"}, {"type": "Feature", "id": "13604747", "geometry": {"type": "Point", "coordinates": [-6.25996, 53.349079]}, "properties": {"xid": "Q55049885", "name": "Jim Larkin monument", "rate": 2, "wikidata": "Q55049885", "kinds": "historic,monuments_and_memorials,interesting_places,monuments"}, "Photo": "http://upload.wikimedia.org/wikipedia/commons/thumb/c/c9/County_Dublin_-_Jim_Larkin_monument_-_20180824172434.jpg/220px-County_Dublin_-_Jim_Larkin_monument_-_20180824172434.jpg", "Website": "null"}, {"type": "Feature", "id": "13620127", "geometry": {"type": "Point", "coordinates": [-6.2778, 53.369999]}, "properties": {"xid": "Q65122434", "name": "William J. Walsh Memorial", "rate": 2, "wikidata": "Q65122434", "kinds": "historic,monuments_and_memorials,burial_places,interesting_places,other_burial_places,monuments"}, "Photo": "http://upload.wikimedia.org/wikipedia/commons/thumb/1/13/Glasnevin.jpg/220px-Glasnevin.jpg", "Website": "null"}, {"type": "Feature", "id": "170864", "geometry": {"type": "Point", "coordinates": [-6.56563, 53.277878]}, "properties": {"xid": "W257329111", "name": "Oughterard Cemetery", "rate": 1, "osm": "way/257329111", "kinds": "cemeteries,historic,burial_places,interesting_places"}, "Photo": "null", "Website": "null"}, {"type": "Feature", "id": "240772", "geometry": {"type": "Point", "coordinates": [-6.224023, 53.457668]}, "properties": {"xid": "W308419629", "name": "St Columba's Swords Graveyard", "rate": 1, "osm": "way/308419629", "kinds": "cemeteries,historic,burial_places,interesting_places"}, "Photo": "null", "Website": "null"}, {"type": "Feature", "id": "310413", "geometry": {"type": "Point", "coordinates": [-6.251267, 53.340012]}, "properties": {"xid": "W359561782", "name": "An D\u00fan Cuimhneach\u00e1in", "rate": 1, "osm": "way/359561782", "kinds": "historic,burial_places,interesting_places,war_memorials"}, "Photo": "null", "Website": "null"}, {"type": "Feature", "id": "342895", "geometry": {"type": "Point", "coordinates": [-6.537673, 53.298508]}, "properties": {"xid": "W377006211", "name": "Newcastle-Lyons Graveyard", "rate": 1, "osm": "way/377006211", "kinds": "cemeteries,historic,burial_places,interesting_places"}, "Photo": "null", "Website": "null"}, {"type": "Feature", "id": "343001", "geometry": {"type": "Point", "coordinates": [-6.269078, 53.344662]}, "properties": {"xid": "W377048943", "name": "Saint Michael and John Vaults (site of)", "rate": 1, "osm": "way/377048943", "kinds": "cemeteries,historic,burial_places,interesting_places"}, "Photo": "null", "Website": "null"}, {"type": "Feature", "id": "343002", "geometry": {"type": "Point", "coordinates": [-6.16875, 53.424488]}, "properties": {"xid": "W377048946", "name": "Saint Nicholas Graveyard", "rate": 1, "osm": "way/377048946", "kinds": "cemeteries,historic,burial_places,interesting_places"}, "Photo": "null", "Website": "null"}, {"type": "Feature", "id": "343885", "geometry": {"type": "Point", "coordinates": [-6.212547, 53.381699]}, "properties": {"xid": "W377347698", "name": "Artane Graveyard (Disused)", "rate": 1, "osm": "way/377347698", "kinds": "cemeteries,historic,burial_places,interesting_places"}, "Photo": "null", "Website": "null"}, {"type": "Feature", "id": "687702", "geometry": {"type": "Point", "coordinates": [-6.066345, 53.386242]}, "properties": {"xid": "W640386802", "name": "St Mary's", "rate": 1, "osm": "way/640386802", "kinds": "cemeteries,historic,burial_places,interesting_places"}, "Photo": "null", "Website": "null"}, {"type": "Feature", "id": "790877", "geometry": {"type": "Point", "coordinates": [-6.260298, 53.339329]}, "properties": {"xid": "N278842456", "name": "African Rose", "rate": 1, "osm": "node/278842456", "kinds": "historic,monuments_and_memorials,interesting_places,monuments"}, "Photo": "null", "Website": "null"}, {"type": "Feature", "id": "798644", "geometry": {"type": "Point", "coordinates": [-6.326879, 53.267693]}, "properties": {"xid": "N290248712", "name": "Saint Colmcilles Well", "rate": 1, "osm": "node/290248712", "kinds": "historic,monuments_and_memorials,interesting_places,monuments"}, "Photo": "null", "Website": "null"}, {"type": "Feature", "id": "799238", "geometry": {"type": "Point", "coordinates": [-6.350872, 53.272846]}, "properties": {"xid": "N290897495", "name": "Killininny Tower", "rate": 1, "osm": "node/290897495", "kinds": "fortifications,historic,interesting_places,castles"}, "Photo": "null", "Website": "null"}, {"type": "Feature", "id": "818254", "geometry": {"type": "Point", "coordinates": [-6.082232, 53.379555]}, "properties": {"xid": "N316422583", "name": "Aideen's Dolmen", "rate": 1, "osm": "node/316422583", "kinds": "megaliths,historic,dolmens,burial_places,archaeology,interesting_places"}, "Photo": "null", "Website": "null"}, {"type": "Feature", "id": "828451", "geometry": {"type": "Point", "coordinates": [-6.56594, 53.390381]}, "properties": {"xid": "N338762834", "name": "Sun clock", "rate": 1, "osm": "node/338762834", "kinds": "historic,monuments_and_memorials,interesting_places,monuments"}, "Photo": "null", "Website": "null"}, {"type": "Feature", "id": "869144", "geometry": {"type": "Point", "coordinates": [-6.310856, 53.222183]}, "properties": {"xid": "N392669837", "name": "Bullaun Stone", "rate": 1, "osm": "node/392669837", "kinds": "historic,archaeology,interesting_places,other_archaeological_sites"}, "Photo": "null", "Website": "null"}, {"type": "Feature", "id": "881711", "geometry": {"type": "Point", "coordinates": [-6.083405, 53.373306]}, "properties": {"xid": "N428119020", "name": "Shielmartin Hill Cairn", "rate": 1, "osm": "node/428119020", "kinds": "historic,archaeology,interesting_places,other_archaeological_sites"}, "Photo": "null", "Website": "null"}, {"type": "Feature", "id": "908622", "geometry": {"type": "Point", "coordinates": [-6.231531, 53.31953]}, "properties": {"xid": "N479094489", "name": "The Arthur Morrison Monument", "rate": 1, "osm": "node/479094489", "kinds": "historic,monuments_and_memorials,interesting_places,monuments"}, "Photo": "null", "Website": "null"}, {"type": "Feature", "id": "938242", "geometry": {"type": "Point", "coordinates": [-6.553288, 53.376926]}, "properties": {"xid": "N571982307", "name": "Altar", "rate": 1, "osm": "node/571982307", "kinds": "cemeteries,historic,burial_places,interesting_places"}, "Photo": "null", "Website": "null"}, {"type": "Feature", "id": "967669", "geometry": {"type": "Point", "coordinates": [-6.069087, 53.38855]}, "properties": {"xid": "N662385701", "name": "Fisher's Cross", "rate": 1, "osm": "node/662385701", "kinds": "historic,monuments_and_memorials,interesting_places,monuments"}, "Photo": "null", "Website": "null"}, {"type": "Feature", "id": "976876", "geometry": {"type": "Point", "coordinates": [-6.162231, 53.350929]}, "properties": {"xid": "N681856484", "name": "Stella Maris - Star of the Sea", "rate": 1, "osm": "node/681856484", "kinds": "historic,monuments_and_memorials,interesting_places,monuments"}, "Photo": "null", "Website": "null"}, {"type": "Feature", "id": "1023683", "geometry": {"type": "Point", "coordinates": [-6.131754, 53.293724]}, "properties": {"xid": "N838869017", "name": "RMS Leinster", "rate": 1, "osm": "node/838869017", "kinds": "historic,monuments_and_memorials,interesting_places,monuments"}, "Photo": "null", "Website": "null"}, {"type": "Feature", "id": "1023684", "geometry": {"type": "Point", "coordinates": [-6.131892, 53.293812]}, "properties": {"xid": "N838869015", "name": "King George IV Monument", "rate": 1, "osm": "node/838869015", "kinds": "historic,monuments_and_memorials,interesting_places,monuments"}, "Photo": "null", "Website": "null"}, {"type": "Feature", "id": "1036634", "geometry": {"type": "Point", "coordinates": [-6.267014, 53.336407]}, "properties": {"xid": "N880577987", "name": "Rev John Austin S.J.", "rate": 1, "osm": "node/880577987", "kinds": "historic,monuments_and_memorials,interesting_places,monuments"}, "Photo": "null", "Website": "null"}, {"type": "Feature", "id": "1039338", "geometry": {"type": "Point", "coordinates": [-6.285931, 53.347481]}, "properties": {"xid": "N890998534", "name": "Croppies Acre Memorial", "rate": 1, "osm": "node/890998534", "kinds": "historic,monuments_and_memorials,interesting_places,monuments"}, "Photo": "null", "Website": "null"}, {"type": "Feature", "id": "1100323", "geometry": {"type": "Point", "coordinates": [-6.378295, 53.192726]}, "properties": {"xid": "N1137319753", "name": "Seefingan Cairn", "rate": 1, "osm": "node/1137319753", "kinds": "historic,archaeology,interesting_places,other_archaeological_sites"}, "Photo": "null", "Website": "null"}, {"type": "Feature", "id": "1410788", "geometry": {"type": "Point", "coordinates": [-6.31848, 53.22773]}, "properties": {"xid": "N1976319788", "name": "Sweep's Rock", "rate": 1, "osm": "node/1976319788", "kinds": "historic,archaeology,interesting_places,other_archaeological_sites"}, "Photo": "null", "Website": "null"}, {"type": "Feature", "id": "1410789", "geometry": {"type": "Point", "coordinates": [-6.32639, 53.247242]}, "properties": {"xid": "N1976319790", "name": "Ringfort", "rate": 1, "osm": "node/1976319790", "kinds": "historic,archaeology,interesting_places,other_archaeological_sites"}, "Photo": "null", "Website": "null"}, {"type": "Feature", "id": "1410790", "geometry": {"type": "Point", "coordinates": [-6.328597, 53.21508]}, "properties": {"xid": "N1976319804", "name": "Cnocan Ruad", "rate": 1, "osm": "node/1976319804", "kinds": "historic,archaeology,interesting_places,other_archaeological_sites"}, "Photo": "null", "Website": "null"}, {"type": "Feature", "id": "1410791", "geometry": {"type": "Point", "coordinates": [-6.329123, 53.218216]}, "properties": {"xid": "N1976319798", "name": "Shed Stone", "rate": 1, "osm": "node/1976319798", "kinds": "historic,archaeology,interesting_places,other_archaeological_sites"}, "Photo": "null", "Website": "null"}, {"type": "Feature", "id": "1448189", "geometry": {"type": "Point", "coordinates": [-6.588327, 53.384071]}, "properties": {"xid": "N2093677675", "name": "Therese Fitzgerald", "rate": 1, "osm": "node/2093677675", "kinds": "historic,burial_places,interesting_places,other_burial_places"}, "Photo": "null", "Website": "null"}, {"type": "Feature", "id": "1517226", "geometry": {"type": "Point", "coordinates": [-6.276448, 53.369514]}, "properties": {"xid": "N2300864532", "name": "Michael Collins", "rate": 1, "osm": "node/2300864532", "kinds": "historic,monuments_and_memorials,interesting_places,monuments"}, "Photo": "null", "Website": "null"}, {"type": "Feature", "id": "1674555", "geometry": {"type": "Point", "coordinates": [-6.097293, 53.534782]}, "properties": {"xid": "N2688898035", "name": "Kenure Portico", "rate": 1, "osm": "node/2688898035", "kinds": "historic,monuments_and_memorials,interesting_places,monuments"}, "Photo": "null", "Website": "null"}, {"type": "Feature", "id": "1730884", "geometry": {"type": "Point", "coordinates": [-6.285223, 53.327995]}, "properties": {"xid": "N2887573501", "name": "Juice", "rate": 1, "osm": "node/2887573501", "kinds": "cemeteries,historic,burial_places,interesting_places"}, "Photo": "null", "Website": "null"}, {"type": "Feature", "id": "1807250", "geometry": {"type": "Point", "coordinates": [-6.28079, 53.315197]}, "properties": {"xid": "N3110982967", "name": "Birthplace of James Joyce", "rate": 1, "osm": "node/3110982967", "kinds": "historic,monuments_and_memorials,interesting_places,monuments"}, "Photo": "null", "Website": "null"}, {"type": "Feature", "id": "1944905", "geometry": {"type": "Point", "coordinates": [-6.266701, 53.343037]}, "properties": {"xid": "N3559946600", "name": "The Record Tower", "rate": 1, "osm": "node/3559946600", "kinds": "fortifications,historic,interesting_places,fortified_towers"}, "Photo": "null", "Website": "null"}, {"type": "Feature", "id": "1973664", "geometry": {"type": "Point", "coordinates": [-6.104405, 53.26939]}, "properties": {"xid": "N3656847852", "name": "Thomas Higgin Memorial", "rate": 1, "osm": "node/3656847852", "kinds": "historic,monuments_and_memorials,interesting_places,monuments"}, "Photo": "null", "Website": "null"}, {"type": "Feature", "id": "2000445", "geometry": {"type": "Point", "coordinates": [-6.259915, 53.558643]}, "properties": {"xid": "N3715373730", "name": "Hollywood Rath", "rate": 1, "osm": "node/3715373730", "kinds": "historic,archaeology,interesting_places,other_archaeological_sites"}, "Photo": "null", "Website": "null"}, {"type": "Feature", "id": "2037718", "geometry": {"type": "Point", "coordinates": [-6.257132, 53.34166]}, "properties": {"xid": "N3800882474", "name": "Dublin Millennium", "rate": 1, "osm": "node/3800882474", "kinds": "historic,monuments_and_memorials,interesting_places,monuments"}, "Photo": "null", "Website": "null"}, {"type": "Feature", "id": "2039139", "geometry": {"type": "Point", "coordinates": [-6.268304, 53.341473]}, "properties": {"xid": "N3804149633", "name": "Saint Michael-le-pole graveyard (site of)", "rate": 1, "osm": "node/3804149633", "kinds": "cemeteries,historic,burial_places,interesting_places"}, "Photo": "null", "Website": "null"}, {"type": "Feature", "id": "2068606", "geometry": {"type": "Point", "coordinates": [-6.158746, 53.253815]}, "properties": {"xid": "N3894925003", "name": "Glendruid Dolmen", "rate": 1, "osm": "node/3894925003", "kinds": "historic,archaeology,interesting_places,other_archaeological_sites"}, "Photo": "null", "Website": "null"},