{"type": "FeatureCollection", "features": [{"type": "Feature", "id": "5631307", "geometry": {"type": "Point", "coordinates": [-6.230196, 53.340485]}, "properties": {"xid": "W28769109", "name": "Shelbourne Park", "rate": 3, "osm": "way/28769109", "wikidata": "Q3481778", "kinds": "sport,stadiums"}, "Photo": "http://upload.wikimedia.org/wikipedia/commons/thumb/6/68/Ringsend_view_from_Montevetro_building.jpg/220px-Ringsend_view_from_Montevetro_building.jpg", "Website": "null"}, {"type": "Feature", "id": "9473509", "geometry": {"type": "Point", "coordinates": [-6.233272, 53.320889]}, "properties": {"xid": "W587898467", "name": "Energia Park", "rate": 3, "osm": "way/587898467", "wikidata": "Q3036823", "kinds": "sport,stadiums"}, "Photo": "http://upload.wikimedia.org/wikipedia/commons/thumb/c/c6/Newly_Completed_Stand%2C_Leinster_Rugby_Ground_Donnybrook.jpg/220px-Newly_Completed_Stand%2C_Leinster_Rugby_Ground_Donnybrook.jpg", "Website": "https://en.wikipedia.org/w/index.php?title=Donnybrook_Stadium&oldid=930617329"}, {"type": "Feature", "id": "9633019", "geometry": {"type": "Point", "coordinates": [-6.102686, 53.205883]}, "properties": {"xid": "W87061174", "name": "Carlisle Grounds", "rate": 3, "osm": "way/87061174", "wikidata": "Q2939135", "kinds": "sport,stadiums"}, "Photo": "http://upload.wikimedia.org/wikipedia/commons/thumb/3/30/Carlisle_Stand.jpg/220px-Carlisle_Stand.jpg", "Website": "null"}, {"type": "Feature", "id": "9701916", "geometry": {"type": "Point", "coordinates": [-6.3738, 53.28336]}, "properties": {"xid": "W38626330", "name": "Tallaght Stadium", "rate": 3, "osm": "way/38626330", "wikidata": "Q2459367", "kinds": "sport,stadiums"}, "Photo": "http://upload.wikimedia.org/wikipedia/commons/thumb/5/51/Tallaght_Stadium_1.jpg/220px-Tallaght_Stadium_1.jpg", "Website": "https://en.wikipedia.org/w/index.php?title=Tallaght_Stadium&oldid=864158529"}, {"type": "Feature", "id": "9701920", "geometry": {"type": "Point", "coordinates": [-6.280282, 53.330803]}, "properties": {"xid": "W38669200", "name": "National Stadium", "rate": 3, "osm": "way/38669200", "wikidata": "Q6978667", "kinds": "sport,stadiums"}, "Photo": "http://upload.wikimedia.org/wikipedia/commons/thumb/5/54/National_Stadium%2C_Ireland_%28boxing%29.JPG/220px-National_Stadium%2C_Ireland_%28boxing%29.JPG", "Website": "https://en.wikipedia.org/w/index.php?title=National_Stadium_(Ireland)&oldid=840922760"}, {"type": "Feature", "id": "9705960", "geometry": {"type": "Point", "coordinates": [-6.334121, 53.29248]}, "properties": {"xid": "W128621281", "name": "National Basketball Arena", "rate": 3, "osm": "way/128621281", "wikidata": "Q612532", "kinds": "sport,stadiums"}, "Photo": "http://upload.wikimedia.org/wikipedia/commons/thumb/4/4d/Ire_v_Lux_02.jpg/220px-Ire_v_Lux_02.jpg", "Website": "https://en.wikipedia.org/w/index.php?title=National_Basketball_Arena&oldid=917793630"}, {"type": "Feature", "id": "9714943", "geometry": {"type": "Point", "coordinates": [-6.227854, 53.310059]}, "properties": {"xid": "W682304520", "name": "UCD Bowl", "rate": 3, "osm": "way/682304520", "wikidata": "Q4001819", "kinds": "sport,stadiums"}, "Photo": "http://upload.wikimedia.org/wikipedia/commons/thumb/6/69/Belfield_Bowl.jpg/220px-Belfield_Bowl.jpg", "Website": "null"}, {"type": "Feature", "id": "9721312", "geometry": {"type": "Point", "coordinates": [-6.252633, 53.360626]}, "properties": {"xid": "R3235289", "name": "Croke Park", "rate": 3, "osm": "relation/3235289", "wikidata": "Q478225", "kinds": "sport,stadiums"}, "Photo": "http://upload.wikimedia.org/wikipedia/commons/thumb/b/b1/Croke_Park_from_the_Hill_-_2004_All-Ireland_Football_Championship_Final.jpg/220px-Croke_Park_from_the_Hill_-_2004_All-Ireland_Football_Championship_Final.jpg", "Website": "https://pt.wikipedia.org/w/index.php?title=Croke_Park&oldid=56311905"}, {"type": "Feature", "id": "9723093", "geometry": {"type": "Point", "coordinates": [-6.244017, 53.400932]}, "properties": {"xid": "W228461590", "name": "Morton Stadium", "rate": 3, "osm": "way/228461590", "wikidata": "Q3865975", "kinds": "sport,stadiums"}, "Photo": "http://upload.wikimedia.org/wikipedia/commons/thumb/5/5a/Morton_stadium.jpg/220px-Morton_stadium.jpg", "Website": "https://en.wikipedia.org/w/index.php?title=Morton_Stadium&oldid=930618558"}, {"type": "Feature", "id": "9736138", "geometry": {"type": "Point", "coordinates": [-6.229423, 53.335083]}, "properties": {"xid": "R3357396", "name": "Aviva Stadium", "rate": 3, "osm": "relation/3357396", "wikidata": "Q601162", "kinds": "sport,stadiums"}, "Photo": "http://upload.wikimedia.org/wikipedia/commons/thumb/c/c8/Leinster2006.jpg/220px-Leinster2006.jpg", "Website": "https://en.wikipedia.org/w/index.php?title=Lansdowne_Road&oldid=942195577"}, {"type": "Feature", "id": "13086209", "geometry": {"type": "Point", "coordinates": [-6.316619, 53.340923]}, "properties": {"xid": "Q1860189", "name": "Richmond Park", "rate": 3, "wikidata": "Q1860189", "kinds": "sport,stadiums"}, "Photo": "http://upload.wikimedia.org/wikipedia/commons/thumb/4/4b/RichmondParkDublin.JPG/220px-RichmondParkDublin.JPG", "Website": "https://en.wikipedia.org/w/index.php?title=Richmond_Park_(football_ground)&oldid=835985382"}, {"type": "Feature", "id": "13267300", "geometry": {"type": "Point", "coordinates": [-6.251983, 53.367516]}, "properties": {"xid": "Q2421553", "name": "Tolka Park", "rate": 3, "wikidata": "Q2421553", "kinds": "sport,stadiums"}, "Photo": "http://upload.wikimedia.org/wikipedia/commons/thumb/3/3c/Tolka_Park_Dublin.jpg/220px-Tolka_Park_Dublin.jpg", "Website": "https://en.wikipedia.org/w/index.php?title=Tolka_Park&oldid=924204812"}, {"type": "Feature", "id": "13443934", "geometry": {"type": "Point", "coordinates": [-6.275, 53.3619]}, "properties": {"xid": "Q1158113", "name": "Dalymount Park", "rate": 3, "wikidata": "Q1158113", "kinds": "sport,stadiums"}, "Photo": "http://upload.wikimedia.org/wikipedia/commons/thumb/d/dd/Bohemians-Football-Club-Dalymount-Park-Entrance-2012.JPG/220px-Bohemians-Football-Club-Dalymount-Park-Entrance-2012.JPG", "Website": "https://en.wikipedia.org/w/index.php?title=Dalymount_Park&oldid=940441944"}, {"type": "Feature", "id": "13482940", "geometry": {"type": "Point", "coordinates": [-6.29241, 53.324482]}, "properties": {"xid": "Q18030086", "name": "\u00c9amonn Ceannt Cycling Stadium", "rate": 3, "wikidata": "Q18030086", "kinds": "sport,stadiums"}, "Photo": "http://upload.wikimedia.org/wikipedia/commons/thumb/9/96/Athletic_and_Cycle_Track_in_%C3%89amonn_Ceannt_Park_-_geograph.org.uk_-_448387.jpg/220px-Athletic_and_Cycle_Track_in_%C3%89amonn_Ceannt_Park_-_geograph.org.uk_-_448387.jpg", "Website": "null"}, {"type": "Feature", "id": "190901", "geometry": {"type": "Point", "coordinates": [-6.276898, 53.323589]}, "properties": {"xid": "W273012862", "name": "Harold's Cross Greyhound Stadium (Closed)", "rate": 2, "osm": "way/273012862", "wikidata": "Q5659838", "kinds": "sport,stadiums"}, "Photo": "null", "Website": "null"}, {"type": "Feature", "id": "9214933", "geometry": {"type": "Point", "coordinates": [-6.373641, 53.283516]}, "properties": {"xid": "N457698673", "name": "Shamrock Rovers Football Club", "rate": 2, "osm": "node/457698673", "wikidata": "Q203976", "kinds": "sport,stadiums"}, "Photo": "null", "Website": "https://uk.wikipedia.org/w/index.php?title=\u0428\u0435\u043c\u0440\u043e\u043a_\u0420\u043e\u0432\u0435\u0440\u0441&oldid=21593268"}, {"type": "Feature", "id": "9245267", "geometry": {"type": "Point", "coordinates": [-6.278947, 53.324635]}, "properties": {"xid": "W45836122", "name": "Harolds Cross Park", "rate": 2, "osm": "way/45836122", "wikidata": "Q5659838", "kinds": "sport,stadiums"}, "Photo": "null", "Website": "null"}, {"type": "Feature", "id": "9700633", "geometry": {"type": "Point", "coordinates": [-6.218786, 53.34063]}, "properties": {"xid": "W24753827", "name": "Irishtown Stadium", "rate": 2, "osm": "way/24753827", "wikidata": "Q6071825", "kinds": "sport,stadiums"}, "Photo": "null", "Website": "https://en.wikipedia.org/w/index.php?title=Irishtown_Stadium&oldid=822522836"}, {"type": "Feature", "id": "9703380", "geometry": {"type": "Point", "coordinates": [-6.251673, 53.377754]}, "properties": {"xid": "W72002807", "name": "Whitehall Stadium (Homefarm FC)", "rate": 2, "osm": "way/72002807", "wikidata": "Q4019561", "kinds": "sport,stadiums"}, "Photo": "null", "Website": "https://en.wikipedia.org/w/index.php?title=Whitehall_Stadium&oldid=894376981"}, {"type": "Feature", "id": "9706168", "geometry": {"type": "Point", "coordinates": [-6.250194, 53.376892]}, "properties": {"xid": "W132716150", "name": "Whitehall College of Further Education", "rate": 2, "osm": "way/132716150", "wikidata": "Q4019561", "kinds": "sport,stadiums"}, "Photo": "null", "Website": "https://en.wikipedia.org/w/index.php?title=Whitehall_Stadium&oldid=894376981"}, {"type": "Feature", "id": "9738513", "geometry": {"type": "Point", "coordinates": [-6.183673, 53.219685]}, "properties": {"xid": "W529462245", "name": "Ski Club of Ireland", "rate": 2, "osm": "way/529462245", "wikidata": "Q7534864", "kinds": "winter_sports,sport,skiing"}, "Photo": "null", "Website": "null"}, {"type": "Feature", "id": "335537", "geometry": {"type": "Point", "coordinates": [-6.410963, 53.510078]}, "properties": {"xid": "W373684040", "name": "Ashbourne Stadium", "rate": 1, "osm": "way/373684040", "kinds": "sport,stadiums"}, "Photo": "null", "Website": "null"}, {"type": "Feature", "id": "382400", "geometry": {"type": "Point", "coordinates": [-6.305058, 53.390785]}, "properties": {"xid": "W400574884", "name": "Finglas Sports and Fitness Centre", "rate": 1, "osm": "way/400574884", "kinds": "sport,pools"}, "Photo": "null", "Website": "null"}, {"type": "Feature", "id": "564374", "geometry": {"type": "Point", "coordinates": [-6.234979, 53.315201]}, "properties": {"xid": "W531122417", "name": "David Lloyd Riverview Gym", "rate": 1, "osm": "way/531122417", "kinds": "sport,pools"}, "Photo": "null", "Website": "null"}, {"type": "Feature", "id": "1046271", "geometry": {"type": "Point", "coordinates": [-6.107858, 53.270504]}, "properties": {"xid": "N913690046", "name": "Dalkey West Valley", "rate": 1, "osm": "node/913690046", "kinds": "sport,climbing"}, "Photo": "null", "Website": "null"}, {"type": "Feature", "id": "1119086", "geometry": {"type": "Point", "coordinates": [-6.107464, 53.269997]}, "properties": {"xid": "N1207810890", "name": "Dalkey Upper Cliffs", "rate": 1, "osm": "node/1207810890", "kinds": "sport,climbing"}, "Photo": "null", "Website": "null"}, {"type": "Feature", "id": "1165380", "geometry": {"type": "Point", "coordinates": [-6.139428, 53.433971]}, "properties": {"xid": "N1333456946", "name": "Portmarnock Sub-Aqua Club", "rate": 1, "osm": "node/1333456946", "kinds": "diving,dive_spots,sport"}, "Photo": "null", "Website": "null"}, {"type": "Feature", "id": "1294628", "geometry": {"type": "Point", "coordinates": [-6.323673, 53.335823]}, "properties": {"xid": "N1697710237", "name": "Gravity Climbing Centre", "rate": 1, "osm": "node/1697710237", "kinds": "sport,climbing"}, "Photo": "null", "Website": "null"}, {"type": "Feature", "id": "1730521", "geometry": {"type": "Point", "coordinates": [-6.265553, 53.324909]}, "properties": {"xid": "N2886224628", "name": "Swan Leisure", "rate": 1, "osm": "node/2886224628", "kinds": "sport,pools"}, "Photo": "null", "Website": "null"}, {"type": "Feature", "id": "2209117", "geometry": {"type": "Point", "coordinates": [-6.20956, 53.325638]}, "properties": {"xid": "N4272123789", "name": "West Wood Club Sandymount Swimming pool", "rate": 1, "osm": "node/4272123789", "kinds": "sport,pools"}, "Photo": "null", "Website": "null"}, {"type": "Feature", "id": "2446383", "geometry": {"type": "Point", "coordinates": [-6.32304, 53.368923]}, "properties": {"xid": "N4685548290", "name": "Aura De Paul Swimming Pool", "rate": 1, "osm": "node/4685548290", "kinds": "sport,pools"}, "Photo": "null", "Website": "null"}, {"type": "Feature", "id": "2738767", "geometry": {"type": "Point", "coordinates": [-6.17904, 53.218262]}, "properties": {"xid": "N5262219272", "name": "Crimpnaris", "rate": 1, "osm": "node/5262219272", "kinds": "sport,climbing"}, "Photo": "null", "Website": "null"}, {"type": "Feature", "id": "2738768", "geometry": {"type": "Point", "coordinates": [-6.17904, 53.218262]}, "properties": {"xid": "N5262222759", "name": "Crimpnarris", "rate": 1, "osm": "node/5262222759", "kinds": "sport,climbing"}, "Photo": "null", "Website": "null"}, {"type": "Feature", "id": "2744522", "geometry": {"type": "Point", "coordinates": [-6.17904, 53.218262]}, "properties": {"xid": "N5273551765", "name": "Crimpnarris", "rate": 1, "osm": "node/5273551765", "kinds": "sport,climbing"}, "Photo": "null", "Website": "null"}, {"type": "Feature", "id": "3194850", "geometry": {"type": "Point", "coordinates": [-6.371107, 53.289825]}, "properties": {"xid": "N6431395576", "name": "The Dublin Climbing Centre", "rate": 1, "osm": "node/6431395576", "kinds": "sport,climbing"}, "Photo": "null", "Website": "null"}, {"type": "Feature", "id": "5626918", "geometry": {"type": "Point", "coordinates": [-6.209573, 53.277748]}, "properties": {"xid": "W90999195", "name": "The Wall", "rate": 1, "osm": "way/90999195", "kinds": "sport,climbing"}, "Photo": "null", "Website": "null"}, {"type": "Feature", "id": "5627527", "geometry": {"type": "Point", "coordinates": [-6.316152, 53.401634]}, "properties": {"xid": "N1699660626", "name": "Awesome Walls Climbing Centre", "rate": 1, "osm": "node/1699660626", "kinds": "sport,climbing"}, "Photo": "null", "Website": "null"}, {"type": "Feature", "id": "5630835", "geometry": {"type": "Point", "coordinates": [-6.464077, 53.480751]}, "properties": {"xid": "W512613951", "name": "Fairyhouse Race Course", "rate": 1, "osm": "way/512613951", "kinds": "sport,stadiums"}, "Photo": "null", "Website": "null"}, {"type": "Feature", "id": "5645273", "geometry": {"type": "Point", "coordinates": [-6.254406, 53.346203]}, "properties": {"xid": "W227827216", "name": "Markievicz Leisure Centre", "rate": 1, "osm": "way/227827216", "kinds": "sport,pools"}, "Photo": "null", "Website": "null"}, {"type": "Feature", "id": "5648408", "geometry": {"type": "Point", "coordinates": [-6.160221, 53.402195]}, "properties": {"xid": "W646663826", "name": "Trinity Sports & Leisure", "rate": 1, "osm": "way/646663826", "kinds": "sport,pools"}, "Photo": "null", "Website": "null"}, {"type": "Feature", "id": "8630420", "geometry": {"type": "Point", "coordinates": [-6.104933, 53.270908]}, "properties": {"xid": "N913690018", "name": "Dalkey East Valley", "rate": 1, "osm": "node/913690018", "kinds": "sport,climbing"}, "Photo": "null", "Website": "null"}, {"type": "Feature", "id": "8818421", "geometry": {"type": "Point", "coordinates": [-6.250515, 53.331512]}, "properties": {"xid": "W155787974", "name": "Mespil Swimming Pool", "rate": 1, "osm": "way/155787974", "kinds": "sport,pools"}, "Photo": "null", "Website": "null"}, {"type": "Feature", "id": "8894779", "geometry": {"type": "Point", "coordinates": [-6.264772, 53.394547]}, "properties": {"xid": "W279547971", "name": "Sports and Fitness Ballymun", "rate": 1, "osm": "way/279547971", "kinds": "sport,pools"}, "Photo": "null", "Website": "null"}, {"type": "Feature", "id": "9334426", "geometry": {"type": "Point", "coordinates": [-6.204866, 53.407387]}, "properties": {"xid": "W50904268", "name": "Saint Michael's House Leisure Centre", "rate": 1, "osm": "way/50904268", "kinds": "sport,pools"}, "Photo": "null", "Website": "null"}, {"type": "Feature", "id": "9364192", "geometry": {"type": "Point", "coordinates": [-6.358698, 53.341194]}, "properties": {"xid": "W83019199", "name": "Ballyfermot Leisure Centre", "rate": 1, "osm": "way/83019199", "kinds": "sport,pools"}, "Photo": "null", "Website": "null"}, {"type": "Feature", "id": "2804553", "geometry": {"type": "Point", "coordinates": [-6.258247, 53.384399]}, "properties": {"xid": "N5401827037", "name": "", "rate": 0, "osm": "node/5401827037", "kinds": "sport,pools"}, "Photo": "null", "Website": "null"}, {"type": "Feature", "id": "5630529", "geometry": {"type": "Point", "coordinates": [-6.252278, 53.377651]}, "properties": {"xid": "W40617788", "name": "", "rate": 0, "osm": "way/40617788", "kinds": "sport,stadiums"}, "Photo": "null", "Website": "null"}, {"type": "Feature", "id": "5634941", "geometry": {"type": "Point", "coordinates": [-6.315783, 53.341026]}, "properties": {"xid": "W128125894", "name": "", "rate": 0, "osm": "way/128125894", "kinds": "sport,stadiums"}, "Photo": "null", "Website": "null"}, {"type": "Feature", "id": "5634942", "geometry": {"type": "Point", "coordinates": [-6.316907, 53.341232]}, "properties": {"xid": "W128125895", "name": "", "rate": 0, "osm": "way/128125895", "kinds": "sport,stadiums"}, "Photo": "null", "Website": "null"}, {"type": "Feature", "id": "5634943", "geometry": {"type": "Point", "coordinates": [-6.316493, 53.340553]}, "properties": {"xid": "W128125891", "name": "", "rate": 0, "osm": "way/128125891", "kinds": "sport,stadiums"}, "Photo": "null", "Website": "null"}, {"type": "Feature", "id": "5635313", "geometry": {"type": "Point", "coordinates": [-6.252936, 53.367706]}, "properties": {"xid": "W140574695", "name": "", "rate": 0, "osm": "way/140574695", "kinds": "sport,stadiums"}, "Photo": "null", "Website": "null"}, {"type": "Feature", "id": "9298134", "geometry": {"type": "Point", "coordinates": [-6.252311, 53.367157]}, "properties": {"xid": "W23076389", "name": "", "rate": 0, "osm": "way/23076389", "kinds": "sport,stadiums"}, "Photo": "null", "Website": "null"}, {"type": "Feature", "id": "9326045", "geometry": {"type": "Point", "coordinates": [-6.251569, 53.367798]}, "properties": {"xid": "W43188148", "name": "", "rate": 0, "osm": "way/43188148", "kinds": "sport,stadiums"}, "Photo": "null", "Website": "null"}, {"type": "Feature", "id": "9366941", "geometry": {"type": "Point", "coordinates": [-6.31327, 53.294491]}, "properties": {"xid": "W85628314", "name": "", "rate": 0, "osm": "way/85628314", "kinds": "sport,pools"}, "Photo": "null", "Website": "null"}, {"type": "Feature", "id": "9443126", "geometry": {"type": "Point", "coordinates": [-6.251267, 53.367077]}, "properties": {"xid": "W140574691", "name": "", "rate": 0, "osm": "way/140574691", "kinds": "sport,stadiums"}, "Photo": "null", "Website": "null"}]}