{"type": "FeatureCollection", "features": [{"type": "Feature", "id": "9639890", "geometry": {"type": "Point", "coordinates": [-6.188308, 53.587494]}, "properties": {"xid": "W154608110", "name": "Balrothery Inn", "rate": 7, "osm": "way/154608110", "wikidata": "Q24883197", "kinds": "historic_architecture,architecture,fortifications,historic,monuments_and_memorials,interesting_places,castles,pubs,foods,monuments,tourist_facilities,other_buildings_and_structures"}, "Photo": "http://upload.wikimedia.org/wikipedia/commons/thumb/2/2b/Balrothery_Church_2_Sep2015.jpg/220px-Balrothery_Church_2_Sep2015.jpg", "Website": "null"}, {"type": "Feature", "id": "4571164", "geometry": {"type": "Point", "coordinates": [-6.266959, 53.348572]}, "properties": {"xid": "W80567253", "name": "The Church", "rate": 3, "osm": "way/80567253", "wikidata": "Q7590163", "kinds": "religion,churches,interesting_places,pubs,foods,tourist_facilities,other_churches"}, "Photo": "http://upload.wikimedia.org/wikipedia/commons/thumb/1/17/Stmarysdublin.JPG/220px-Stmarysdublin.JPG", "Website": "https://it.wikipedia.org/w/index.php?title=St._Mary's_Church_(Dublino)&oldid=102610928"}, {"type": "Feature", "id": "6277294", "geometry": {"type": "Point", "coordinates": [-6.390352, 53.353111]}, "properties": {"xid": "W44988238", "name": "Liffey Valley Shopping Centre", "rate": 3, "osm": "way/44988238", "wikidata": "Q6545569", "kinds": "shops,malls,tourist_facilities"}, "Photo": "http://upload.wikimedia.org/wikipedia/commons/thumb/9/9d/Shops_Liffey_Valley_Dublin_-_geograph.org.uk_-_553524.jpg/220px-Shops_Liffey_Valley_Dublin_-_geograph.org.uk_-_553524.jpg", "Website": "null"}, {"type": "Feature", "id": "6373475", "geometry": {"type": "Point", "coordinates": [-6.134973, 53.293671]}, "properties": {"xid": "N2518507335", "name": "Nando's", "rate": 3, "osm": "node/2518507335", "wikidata": "Q3472954", "kinds": "restaurants,foods,tourist_facilities"}, "Photo": "http://upload.wikimedia.org/wikipedia/commons/thumb/f/f5/Nandos-Canal-Walk.jpg/220px-Nandos-Canal-Walk.jpg", "Website": "https://en.wikipedia.org/w/index.php?title=Nando's&oldid=975141639"}, {"type": "Feature", "id": "6490138", "geometry": {"type": "Point", "coordinates": [-6.261188, 53.347279]}, "properties": {"xid": "W233804882", "name": "Bachelor's Wok", "rate": 3, "osm": "way/233804882", "wikidata": "Q4838849", "kinds": "restaurants,foods,tourist_facilities"}, "Photo": "http://upload.wikimedia.org/wikipedia/commons/thumb/4/4c/Bachelor%27s_Walk_-_geograph.org.uk_-_1578564.jpg/220px-Bachelor%27s_Walk_-_geograph.org.uk_-_1578564.jpg", "Website": "null"}, {"type": "Feature", "id": "7267070", "geometry": {"type": "Point", "coordinates": [-6.254184, 53.338154]}, "properties": {"xid": "W279140841", "name": "O'Donoghue's", "rate": 3, "osm": "way/279140841", "wikidata": "Q2005419", "kinds": "pubs,foods,bars,tourist_facilities"}, "Photo": "http://upload.wikimedia.org/wikipedia/commons/thumb/6/6a/ODonoghue_pub_Dublin_Ireland.jpg/220px-ODonoghue_pub_Dublin_Ireland.jpg", "Website": "https://www.odonoghues.ie/bar.htm"}, {"type": "Feature", "id": "7283878", "geometry": {"type": "Point", "coordinates": [-6.264113, 53.345463]}, "properties": {"xid": "W294962764", "name": "The Temple Bar", "rate": 3, "osm": "way/294962764", "wikidata": "Q12267959", "kinds": "pubs,foods,tourist_facilities"}, "Photo": "http://upload.wikimedia.org/wikipedia/commons/thumb/5/57/Dublin_074.JPG/220px-Dublin_074.JPG", "Website": "null"}, {"type": "Feature", "id": "8817581", "geometry": {"type": "Point", "coordinates": [-6.265922, 53.336555]}, "properties": {"xid": "W154508547", "name": "Whelan's", "rate": 3, "osm": "way/154508547", "wikidata": "Q7992381", "kinds": "pubs,foods,tourist_facilities"}, "Photo": "http://upload.wikimedia.org/wikipedia/commons/thumb/5/55/Mic_Christopher_live_at_Whelans_in_2001.jpg/220px-Mic_Christopher_live_at_Whelans_in_2001.jpg", "Website": "http://www.whelanslive.com/"}, {"type": "Feature", "id": "8819737", "geometry": {"type": "Point", "coordinates": [-6.239463, 53.36058]}, "properties": {"xid": "W157921014", "name": "AIB Annesley Bridge (closed)", "rate": 3, "osm": "way/157921014", "wikidata": "Q2851479", "kinds": "bank,banks,tourist_facilities"}, "Photo": "http://upload.wikimedia.org/wikipedia/commons/thumb/a/a8/Tolka_River_below_Annesley_Bridge%2C_Dublin.jpg/220px-Tolka_River_below_Annesley_Bridge%2C_Dublin.jpg", "Website": "null"}, {"type": "Feature", "id": "8889579", "geometry": {"type": "Point", "coordinates": [-6.259357, 53.341839]}, "properties": {"xid": "W270968057", "name": "Davy Byrne's", "rate": 3, "osm": "way/270968057", "wikidata": "Q5242183", "kinds": "pubs,foods,tourist_facilities"}, "Photo": "http://upload.wikimedia.org/wikipedia/commons/thumb/2/2f/DavyByrnesPubDublin.jpg/220px-DavyByrnesPubDublin.jpg", "Website": "http://www.davybyrnes.com"}, {"type": "Feature", "id": "9197772", "geometry": {"type": "Point", "coordinates": [-6.260178, 53.347462]}, "properties": {"xid": "W227766039", "name": "Bachelor Inn", "rate": 3, "osm": "way/227766039", "wikidata": "Q4838849", "kinds": "pubs,foods,tourist_facilities"}, "Photo": "http://upload.wikimedia.org/wikipedia/commons/thumb/4/4c/Bachelor%27s_Walk_-_geograph.org.uk_-_1578564.jpg/220px-Bachelor%27s_Walk_-_geograph.org.uk_-_1578564.jpg", "Website": "null"}, {"type": "Feature", "id": "9365221", "geometry": {"type": "Point", "coordinates": [-6.236776, 53.336353]}, "properties": {"xid": "W84017579", "name": "Beggar's Bush (Jack Ryans)", "rate": 3, "osm": "way/84017579", "wikidata": "Q4880451", "kinds": "pubs,foods,tourist_facilities"}, "Photo": "http://upload.wikimedia.org/wikipedia/commons/thumb/0/08/Beggars_Bush%2C_Dublin.JPG/220px-Beggars_Bush%2C_Dublin.JPG", "Website": "null"}, {"type": "Feature", "id": "9465466", "geometry": {"type": "Point", "coordinates": [-6.252418, 53.344898]}, "properties": {"xid": "W244989701", "name": "O'Neill's of Pearse Street", "rate": 3, "osm": "way/244989701", "wikidata": "Q14947251", "kinds": "pubs,foods,tourist_facilities"}, "Photo": "http://upload.wikimedia.org/wikipedia/commons/thumb/3/33/43_Pearse_Street%2C_Dublin.JPG/220px-43_Pearse_Street%2C_Dublin.JPG", "Website": "null"}, {"type": "Feature", "id": "9635733", "geometry": {"type": "Point", "coordinates": [-6.256064, 53.350357]}, "properties": {"xid": "N4551093489", "name": "Talbot mall", "rate": 3, "osm": "node/4551093489", "wikidata": "Q6070917", "kinds": "shops,malls,tourist_facilities"}, "Photo": "http://upload.wikimedia.org/wikipedia/commons/thumb/a/a4/Irish_Life_Mall_at_night.jpg/220px-Irish_Life_Mall_at_night.jpg", "Website": "null"}, {"type": "Feature", "id": "9637198", "geometry": {"type": "Point", "coordinates": [-6.258784, 53.340542]}, "properties": {"xid": "W268837279", "name": "37 Dawson Street", "rate": 3, "osm": "way/268837279", "wikidata": "Q7586958", "kinds": "religion,churches,interesting_places,restaurants,foods,tourist_facilities,other_churches"}, "Photo": "http://upload.wikimedia.org/wikipedia/commons/thumb/3/36/St._Ann%27s_Church%2C_Dawson_Street%2C_Dublin_20150808_1.jpg/220px-St._Ann%27s_Church%2C_Dawson_Street%2C_Dublin_20150808_1.jpg", "Website": "https://en.wikipedia.org/w/index.php?title=St._Ann's_Church,_Dawson_Street&oldid=881625587"}, {"type": "Feature", "id": "9639483", "geometry": {"type": "Point", "coordinates": [-6.255585, 53.346947]}, "properties": {"xid": "W228284414", "name": "Mulligan's", "rate": 3, "osm": "way/228284414", "wikidata": "Q6934236", "kinds": "pubs,foods,tourist_facilities"}, "Photo": "http://upload.wikimedia.org/wikipedia/commons/thumb/7/7e/MulligansPubDublin.jpg/220px-MulligansPubDublin.jpg", "Website": "null"}, {"type": "Feature", "id": "9639634", "geometry": {"type": "Point", "coordinates": [-6.276351, 53.344978]}, "properties": {"xid": "N460836949", "name": "Brazen Head", "rate": 3, "osm": "node/460836949", "wikidata": "Q17006015", "kinds": "pubs,restaurants,foods,tourist_facilities"}, "Photo": "http://upload.wikimedia.org/wikipedia/commons/thumb/d/dc/The_Brazen_Head_%28cropped%29.jpg/220px-The_Brazen_Head_%28cropped%29.jpg", "Website": "http://www.brazenhead.com"}, {"type": "Feature", "id": "9640137", "geometry": {"type": "Point", "coordinates": [-6.264668, 53.343792]}, "properties": {"xid": "N232040102", "name": "The George", "rate": 3, "osm": "node/232040102", "wikidata": "Q7736161", "kinds": "nightclubs,cultural,theatres_and_entertainments,interesting_places,adult,music_venues,pubs,foods,bars,tourist_facilities"}, "Photo": "http://upload.wikimedia.org/wikipedia/commons/thumb/8/87/Thegeorge.jpg/220px-Thegeorge.jpg", "Website": "null"}, {"type": "Feature", "id": "9641169", "geometry": {"type": "Point", "coordinates": [-6.260203, 53.344948]}, "properties": {"xid": "R3676582", "name": "Bank of Ireland", "rate": 3, "osm": "relation/3676582", "wikidata": "Q2662776", "kinds": "bank,banks,tourist_facilities"}, "Photo": "http://upload.wikimedia.org/wikipedia/commons/thumb/1/11/Houses_of_Parliament-Bank_of_Ireland_1.jpg/220px-Houses_of_Parliament-Bank_of_Ireland_1.jpg", "Website": "https://it.wikipedia.org/w/index.php?title=Palazzo_del_Parlamento_irlandese&oldid=106031383"}, {"type": "Feature", "id": "9669679", "geometry": {"type": "Point", "coordinates": [-6.567626, 53.389954]}, "properties": {"xid": "W30643315", "name": "Carton House Bar", "rate": 3, "osm": "way/30643315", "wikidata": "Q5047391", "kinds": "accomodations,other_hotels,foods,bars,tourist_facilities"}, "Photo": "http://upload.wikimedia.org/wikipedia/commons/thumb/1/1d/Carton_House_1824.jpg/220px-Carton_House_1824.jpg", "Website": "null"}, {"type": "Feature", "id": "9676564", "geometry": {"type": "Point", "coordinates": [-6.538371, 53.340206]}, "properties": {"xid": "W377159159", "name": "Castletown Inn", "rate": 3, "osm": "way/377159159", "wikidata": "Q2453522", "kinds": "museums,cultural,interesting_places,other_museums,pubs,foods,tourist_facilities"}, "Photo": "http://upload.wikimedia.org/wikipedia/commons/thumb/6/6a/Castletown_House_7.jpg/220px-Castletown_House_7.jpg", "Website": "https://en.wikipedia.org/w/index.php?title=Castletown_House&oldid=867842998"}, {"type": "Feature", "id": "9678868", "geometry": {"type": "Point", "coordinates": [-6.257254, 53.350185]}, "properties": {"xid": "N1712111505", "name": "101 Talbot", "rate": 3, "osm": "node/1712111505", "wikidata": "Q6070917", "kinds": "restaurants,shops,foods,malls,tourist_facilities"}, "Photo": "http://upload.wikimedia.org/wikipedia/commons/thumb/a/a4/Irish_Life_Mall_at_night.jpg/220px-Irish_Life_Mall_at_night.jpg", "Website": "null"}, {"type": "Feature", "id": "9682317", "geometry": {"type": "Point", "coordinates": [-6.252892, 53.338348]}, "properties": {"xid": "W231245954", "name": "Restaurant Patrick Guilbaud", "rate": 3, "osm": "way/231245954", "wikidata": "Q2536736", "kinds": "restaurants,foods,tourist_facilities"}, "Photo": "http://upload.wikimedia.org/wikipedia/commons/thumb/8/8d/RestaurantPatrickGuilbaud.jpg/220px-RestaurantPatrickGuilbaud.jpg", "Website": "https://guide.michelin.com/ie/en/dublin/city-centre/restaurant/patrick-guilbaud"}, {"type": "Feature", "id": "9685972", "geometry": {"type": "Point", "coordinates": [-6.242188, 53.287033]}, "properties": {"xid": "W129654034", "name": "Dundrum Town Centre", "rate": 3, "osm": "way/129654034", "wikidata": "Q5314910", "kinds": "shops,malls,tourist_facilities"}, "Photo": "http://upload.wikimedia.org/wikipedia/commons/thumb/d/dc/Interior_of_Dundrum_Town_Centre.jpg/220px-Interior_of_Dundrum_Town_Centre.jpg", "Website": "https://en.wikipedia.org/w/index.php?title=Dundrum_Town_Centre&oldid=865066955"}, {"type": "Feature", "id": "9689539", "geometry": {"type": "Point", "coordinates": [-6.263922, 53.354378]}, "properties": {"xid": "N4419601490", "name": "Chapter One", "rate": 3, "osm": "node/4419601490", "wikidata": "Q2129707", "kinds": "restaurants,foods,tourist_facilities"}, "Photo": "http://upload.wikimedia.org/wikipedia/commons/thumb/8/8c/Chapter_One_sign.jpg/220px-Chapter_One_sign.jpg", "Website": "https://guide.michelin.com/ie/en/dublin/city-centre/restaurant/chapter-one"}, {"type": "Feature", "id": "9690941", "geometry": {"type": "Point", "coordinates": [-6.17971, 53.401051]}, "properties": {"xid": "W18197393", "name": "Clarehall Shopping Centre", "rate": 3, "osm": "way/18197393", "wikidata": "Q25110491", "kinds": "shops,malls,tourist_facilities"}, "Photo": "http://upload.wikimedia.org/wikipedia/commons/thumb/a/a7/Focus_on_structural_techniques_of_Clare_Hall_Shopping_Centre_in_Dublin.jpg/220px-Focus_on_structural_techniques_of_Clare_Hall_Shopping_Centre_in_Dublin.jpg", "Website": "https://en.wikipedia.org/w/index.php?title=Clarehall_Shopping_Centre&oldid=855622635"}, {"type": "Feature", "id": "9700287", "geometry": {"type": "Point", "coordinates": [-6.262358, 53.339966]}, "properties": {"xid": "W14398576", "name": "Stephen's Green Shopping Centre", "rate": 3, "osm": "way/14398576", "wikidata": "Q7608499", "kinds": "shops,malls,tourist_facilities"}, "Photo": "http://upload.wikimedia.org/wikipedia/commons/thumb/3/36/Dublin-StephensGreen1.JPG/220px-Dublin-StephensGreen1.JPG", "Website": "https://en.wikipedia.org/w/index.php?title=Stephen's_Green_Shopping_Centre&oldid=862223629"}, {"type": "Feature", "id": "9701285", "geometry": {"type": "Point", "coordinates": [-6.248878, 53.330563]}, "properties": {"xid": "W30754679", "name": "Clayton Hotel Burlington Road", "rate": 3, "osm": "way/30754679", "wikidata": "Q24284732", "kinds": "accomodations,other_hotels,cafes,foods,bars,tourist_facilities"}, "Photo": "http://upload.wikimedia.org/wikipedia/commons/thumb/6/60/Burlington_Hotel_Dublin_2008.jpg/220px-Burlington_Hotel_Dublin_2008.jpg", "Website": "https://en.wikipedia.org/w/index.php?title=Burlington_Hotel_(Dublin)&oldid=818630861"}, {"type": "Feature", "id": "9808049", "geometry": {"type": "Point", "coordinates": [-6.255988, 53.349876]}, "properties": {"xid": "W677070823", "name": "Talbot Mall", "rate": 3, "osm": "way/677070823", "wikidata": "Q6070917", "kinds": "shops,malls,tourist_facilities"}, "Photo": "http://upload.wikimedia.org/wikipedia/commons/thumb/a/a4/Irish_Life_Mall_at_night.jpg/220px-Irish_Life_Mall_at_night.jpg", "Website": "null"}, {"type": "Feature", "id": "9808050", "geometry": {"type": "Point", "coordinates": [-6.256101, 53.349449]}, "properties": {"xid": "W677070824", "name": "Talbot Mall", "rate": 3, "osm": "way/677070824", "wikidata": "Q6070917", "kinds": "shops,malls,tourist_facilities"}, "Photo": "http://upload.wikimedia.org/wikipedia/commons/thumb/a/a4/Irish_Life_Mall_at_night.jpg/220px-Irish_Life_Mall_at_night.jpg", "Website": "null"}, {"type": "Feature", "id": "12103627", "geometry": {"type": "Point", "coordinates": [-6.254129, 53.33823]}, "properties": {"xid": "H40569", "name": "o'donoghue's", "rate": 3, "wikidata": "Q2005419", "kinds": "guest_houses,accomodations,foods,bars,tourist_facilities"}, "Photo": "http://upload.wikimedia.org/wikipedia/commons/thumb/6/6a/ODonoghue_pub_Dublin_Ireland.jpg/220px-ODonoghue_pub_Dublin_Ireland.jpg", "Website": "https://www.odonoghues.ie/bar.htm"}, {"type": "Feature", "id": "12380610", "geometry": {"type": "Point", "coordinates": [-6.259167, 53.341667]}, "properties": {"xid": "Q12267947", "name": "The Oliver St. John Gogarty", "rate": 3, "wikidata": "Q12267947", "kinds": "pubs,foods,tourist_facilities"}, "Photo": "http://upload.wikimedia.org/wikipedia/commons/thumb/9/95/Gogarty.JPG/220px-Gogarty.JPG", "Website": "null"}, {"type": "Feature", "id": "13092132", "geometry": {"type": "Point", "coordinates": [-6.303056, 53.403889]}, "properties": {"xid": "Q5084225", "name": "Charlestown Shopping Centre", "rate": 3, "wikidata": "Q5084225", "kinds": "shops,malls,tourist_facilities"}, "Photo": "http://upload.wikimedia.org/wikipedia/commons/thumb/b/b1/Charlestown_Shopping_Centre_entrance.JPG/220px-Charlestown_Shopping_Centre_entrance.JPG", "Website": "https://es.wikipedia.org/w/index.php?title=Centro_Comercial_Charlestown&oldid=119104911"}, {"type": "Feature", "id": "321679", "geometry": {"type": "Point", "coordinates": [-6.271725, 53.329865]}, "properties": {"xid": "W366214995", "name": "Locks", "rate": 2, "osm": "way/366214995", "wikidata": "Q2273755", "kinds": "restaurants,foods,tourist_facilities"}, "Photo": "null", "Website": "http://www.irishtimes.com/life-and-style/food-and-drink/rory-carville-to-leave-locks-brasserie-and-open-cleaver-east-with-oliver-dunne-1.1405451"}, {"type": "Feature", "id": "6277538", "geometry": {"type": "Point", "coordinates": [-6.26736, 53.289642]}, "properties": {"xid": "W5853270", "name": "Nutgrove Shopping Centre", "rate": 2, "osm": "way/5853270", "wikidata": "Q7070443", "kinds": "shops,malls,tourist_facilities"}, "Photo": "null", "Website": "null"}, {"type": "Feature", "id": "6278685", "geometry": {"type": "Point", "coordinates": [-6.371722, 53.286541]}, "properties": {"xid": "W37838269", "name": "The Square", "rate": 2, "osm": "way/37838269", "wikidata": "Q7766102", "kinds": "shops,malls,tourist_facilities"}, "Photo": "null", "Website": "http://www.thesquare.ie/"}, {"type": "Feature", "id": "7649329", "geometry": {"type": "Point", "coordinates": [-6.240693, 53.346008]}, "properties": {"xid": "W102694943", "name": "the ferryman townhouse", "rate": 2, "osm": "way/102694943", "wikidata": "Q25385584", "kinds": "accomodations,other_hotels,pubs,foods,tourist_facilities"}, "Photo": "http://upload.wikimedia.org/wikipedia/commons/thumb/6/62/The_Ferryman_Hotel.jpg/220px-The_Ferryman_Hotel.jpg", "Website": "null"}, {"type": "Feature", "id": "8896391", "geometry": {"type": "Point", "coordinates": [-6.262341, 53.338367]}, "properties": {"xid": "W282443755", "name": "Shanahan's Restaurant", "rate": 2, "osm": "way/282443755", "wikidata": "Q7796482", "kinds": "restaurants,foods,tourist_facilities"}, "Photo": "null", "Website": "https://web.archive.org/web/20111010050305/http://www.michelinonline.co.uk/travelshop/star-history/2011/rg-roi.htm"}, {"type": "Feature", "id": "9028756", "geometry": {"type": "Point", "coordinates": [-6.247849, 53.348812]}, "properties": {"xid": "W581158887", "name": "CHQ", "rate": 2, "osm": "way/581158887", "wikidata": "Q55049385", "kinds": "shops,malls,tourist_facilities"}, "Photo": "http://upload.wikimedia.org/wikipedia/commons/thumb/4/4b/County_Dublin_-_CHQ_Building_-_20090618114854.jpg/220px-County_Dublin_-_CHQ_Building_-_20090618114854.jpg", "Website": "null"}, {"type": "Feature", "id": "9197801", "geometry": {"type": "Point", "coordinates": [-6.263575, 53.343822]}, "properties": {"xid": "W228968680", "name": "The Stag's Head", "rate": 2, "osm": "way/228968680", "wikidata": "Q16900633", "kinds": "pubs,foods,tourist_facilities"}, "Photo": "http://upload.wikimedia.org/wikipedia/commons/thumb/2/27/Dublin-47-Stags_Head-1989-gje.jpg/220px-Dublin-47-Stags_Head-1989-gje.jpg", "Website": "null"}, {"type": "Feature", "id": "9209359", "geometry": {"type": "Point", "coordinates": [-6.264684, 53.343048]}, "properties": {"xid": "N880900094", "name": "Boojum", "rate": 2, "osm": "node/880900094", "wikidata": "Q5212139", "kinds": "restaurants,foods,tourist_facilities"}, "Photo": "null", "Website": "https://www.dublincity.ie/dublintraffic/site16Camera21.jpg"}, {"type": "Feature", "id": "9209689", "geometry": {"type": "Point", "coordinates": [-6.266478, 53.345387]}, "properties": {"xid": "N1494148993", "name": "The Workman's Club", "rate": 2, "osm": "node/1494148993", "wikidata": "Q16901552", "kinds": "pubs,foods,tourist_facilities"}, "Photo": "null", "Website": "null"}, {"type": "Feature", "id": "9304673", "geometry": {"type": "Point", "coordinates": [-6.162231, 53.394913]}, "properties": {"xid": "W28008541", "name": "Donaghmede Shopping Centre", "rate": 2, "osm": "way/28008541", "wikidata": "Q5293838", "kinds": "shops,malls,tourist_facilities"}, "Photo": "null", "Website": "null"}, {"type": "Feature", "id": "9482837", "geometry": {"type": "Point", "coordinates": [-6.151819, 53.451614]}, "properties": {"xid": "N1752476235", "name": "Bon App\u00e9tit", "rate": 2, "osm": "node/1752476235", "wikidata": "Q2185528", "kinds": "restaurants,foods,tourist_facilities"}, "Photo": "http://upload.wikimedia.org/wikipedia/commons/thumb/d/dd/BonAppetitMalahide.jpg/220px-BonAppetitMalahide.jpg", "Website": "https://en.wikipedia.org/w/index.php?title=Bon_App\u00e9tit_(restaurant)&oldid=906262814"}, {"type": "Feature", "id": "9493326", "geometry": {"type": "Point", "coordinates": [-6.262331, 53.355049]}, "properties": {"xid": "N5590668029", "name": "Belvedere Grill", "rate": 2, "osm": "node/5590668029", "wikidata": "Q17984999", "kinds": "restaurants,foods,tourist_facilities"}, "Photo": "null", "Website": "null"}, {"type": "Feature", "id": "9634807", "geometry": {"type": "Point", "coordinates": [-6.265726, 53.348335]}, "properties": {"xid": "W5881783", "name": "Jervis Shopping Centre", "rate": 2, "osm": "way/5881783", "wikidata": "Q6185276", "kinds": "shops,malls,tourist_facilities"}, "Photo": "null", "Website": "https://en.wikipedia.org/w/index.php?title=Jervis_Shopping_Centre&oldid=857394612"}, {"type": "Feature", "id": "9637199", "geometry": {"type": "Point", "coordinates": [-6.258465, 53.339993]}, "properties": {"xid": "W269121131", "name": "The Greenhouse", "rate": 2, "osm": "way/269121131", "wikidata": "Q21111695", "kinds": "restaurants,foods,tourist_facilities"}, "Photo": "null", "Website": "https://guide.michelin.com/ie/en/dublin/city-centre/restaurant/greenhouse"}, {"type": "Feature", "id": "9637363", "geometry": {"type": "Point", "coordinates": [-6.248624, 53.336227]}, "properties": {"xid": "N576111231", "name": "L'Ecrivain", "rate": 2, "osm": "node/576111231", "wikidata": "Q6455655", "kinds": "restaurants,foods,tourist_facilities"}, "Photo": "http://upload.wikimedia.org/wikipedia/commons/thumb/0/0a/L%27Ecrivain%2C_Baggot_Street_Lower.JPG/220px-L%27Ecrivain%2C_Baggot_Street_Lower.JPG", "Website": "https://en.wikipedia.org/w/index.php?title=L'Ecrivain&oldid=903870976"}, {"type": "Feature", "id": "9678106", "geometry": {"type": "Point", "coordinates": [-6.264751, 53.349995]}, "properties": {"xid": "W558926731", "name": "ILAC Centre", "rate": 2, "osm": "way/558926731", "wikidata": "Q5996898", "kinds": "shops,malls,tourist_facilities"}, "Photo": "null", "Website": "https://en.wikipedia.org/w/index.php?title=Ilac_Centre&oldid=860031867"}, {"type": "Feature", "id": "9682303", "geometry": {"type": "Point", "coordinates": [-6.260285, 53.347446]}, "properties": {"xid": "W227766040", "name": "O'Connell's", "rate": 2, "osm": "way/227766040", "wikidata": "Q33123185", "kinds": "historic,monuments_and_memorials,interesting_places,pubs,foods,monuments,tourist_facilities"}, "Photo": "http://upload.wikimedia.org/wikipedia/commons/thumb/c/cb/Daniel_O%27Connell_statue_1998-1.jpg/220px-Daniel_O%27Connell_statue_1998-1.jpg", "Website": "null"}, {"type": "Feature", "id": "12185764", "geometry": {"type": "Point", "coordinates": [-6.2615, 53.33918]}, "properties": {"xid": "Q3254784", "name": "Peacock Alley", "rate": 2, "wikidata": "Q3254784", "kinds": "restaurants,foods,tourist_facilities"}, "Photo": "null", "Website": "https://web.archive.org/web/20111010050305/http://www.michelinonline.co.uk/travelshop/star-history/2011/rg-roi.htm"}, {"type": "Feature", "id": "12365414", "geometry": {"type": "Point", "coordinates": [-6.25409, 53.324799]}, "properties": {"xid": "Q2675934", "name": "Mint Restaurant", "rate": 2, "wikidata": "Q2675934", "kinds": "restaurants,foods,tourist_facilities"}, "Photo": "null", "Website": "https://web.archive.org/web/20111010050305/http://www.michelinonline.co.uk/travelshop/star-history/2011/rg-roi.htm"}, {"type": "Feature", "id": "12373542", "geometry": {"type": "Point", "coordinates": [-6.2473, 53.392502]}, "properties": {"xid": "Q7090335", "name": "Omni Park Shopping Centre", "rate": 2, "wikidata": "Q7090335", "kinds": "shops,malls,tourist_facilities"}, "Photo": "null", "Website": "http://www.omnipark.ie"}, {"type": "Feature", "id": "12812354", "geometry": {"type": "Point", "coordinates": [-6.177647, 53.301411]}, "properties": {"xid": "Q28163362", "name": "Heron and Gray", "rate": 2, "wikidata": "Q28163362", "kinds": "restaurants,foods,tourist_facilities"}, "Photo": "null", "Website": "https://www.irishtimes.com/life-and-style/food-and-drink/michelin-starred-heron-grey-to-close-in-january-1.3722857"}, {"type": "Feature", "id": "12905644", "geometry": {"type": "Point", "coordinates": [-6.26215, 53.33744]}, "properties": {"xid": "Q1814945", "name": "The Russell Hotel", "rate": 2, "wikidata": "Q1814945", "kinds": "restaurants,foods,tourist_facilities"}, "Photo": "null", "Website": "https://web.archive.org/web/20111010050305/http://www.michelinonline.co.uk/travelshop/star-history/2011/rg-roi.htm"}, {"type": "Feature", "id": "12907432", "geometry": {"type": "Point", "coordinates": [-6.25776, 53.339199]}, "properties": {"xid": "Q2704508", "name": "The Commons Restaurant", "rate": 2, "wikidata": "Q2704508", "kinds": "restaurants,foods,tourist_facilities"}, "Photo": "null", "Website": "https://web.archive.org/web/20111010050305/http://www.michelinonline.co.uk/travelshop/star-history/2011/rg-roi.htm"}, {"type": "Feature", "id": "13095998", "geometry": {"type": "Point", "coordinates": [-6.213612, 53.39576]}, "properties": {"xid": "Q7059757", "name": "Northside Shopping Centre", "rate": 2, "wikidata": "Q7059757", "kinds": "shops,malls,tourist_facilities"}, "Photo": "null", "Website": "null"}, {"type": "Feature", "id": "13277488", "geometry": {"type": "Point", "coordinates": [-6.26571, 53.3367]}, "properties": {"xid": "Q7772636", "name": "The Village", "rate": 2, "wikidata": "Q7772636", "kinds": "cultural,theatres_and_entertainments,nightclubs,interesting_places,adult,music_venues,foods,bars,tourist_facilities"}, "Photo": "null", "Website": "null"}, {"type": "Feature", "id": "5824", "geometry": {"type": "Point", "coordinates": [-6.259921, 53.268597]}, "properties": {"xid": "W154289274", "name": "Grange Star", "rate": 1, "osm": "way/154289274", "kinds": "shops,conveniences,tourist_facilities"}, "Photo": "null", "Website": "null"}, {"type": "Feature", "id": "6559", "geometry": {"type": "Point", "coordinates": [-6.394601, 53.325775]}, "properties": {"xid": "W154810482", "name": "Crosslands Service Station", "rate": 1, "osm": "way/154810482", "kinds": "transport,tourist_facilities,fuel"}, "Photo": "null", "Website": "null"}, {"type": "Feature", "id": "17549", "geometry": {"type": "Point", "coordinates": [-6.329684, 53.313614]}, "properties": {"xid": "W162126189", "name": "Greenhills Credit Union", "rate": 1, "osm": "way/162126189", "kinds": "bank,banks,tourist_facilities"}, "Photo": "null", "Website": "null"}, {"type": "Feature", "id": "28179", "geometry": {"type": "Point", "coordinates": [-6.182024, 53.220676]}, "properties": {"xid": "W169240902", "name": "Scalp", "rate": 1, "osm": "way/169240902", "kinds": "transport,tourist_facilities,fuel"}, "Photo": "null", "Website": "null"}, {"type": "Feature", "id": "30268", "geometry": {"type": "Point", "coordinates": [-6.276593, 53.382996]}, "properties": {"xid": "N1484714022", "name": "Texaco", "rate": 1, "osm": "node/1484714022", "kinds": "transport,tourist_facilities,fuel"}, "Photo": "null", "Website": "null"}, {"type": "Feature", "id": "30269", "geometry": {"type": "Point", "coordinates": [-6.272483, 53.389809]}, "properties": {"xid": "N1484733487", "name": "Topaz", "rate": 1, "osm": "node/1484733487", "kinds": "transport,tourist_facilities,fuel"}, "Photo": "null", "Website": "null"}, {"type": "Feature", "id": "71664", "geometry": {"type": "Point", "coordinates": [-6.155032, 53.385456]}, "properties": {"xid": "W197886182", "name": "Greendale Shopping Centre", "rate": 1, "osm": "way/197886182", "kinds": "shops,malls,tourist_facilities"}, "Photo": "null", "Website": "null"}, {"type": "Feature", "id": "76400", "geometry": {"type": "Point", "coordinates": [-6.228018, 53.272766]}, "properties": {"xid": "W200596334", "name": "Maxol", "rate": 1, "osm": "way/200596334", "kinds": "transport,tourist_facilities,fuel"}, "Photo": "null", "Website": "null"}, {"type": "Feature", "id": "118463", "geometry": {"type": "Point", "coordinates": [-6.259652, 53.34663]}, "properties": {"xid": "W227764081", "name": "Fitzgerald's", "rate": 1, "osm": "way/227764081", "kinds": "pubs,foods,tourist_facilities"}, "Photo": "null", "Website": "null"}, {"type": "Feature", "id": "118898", "geometry": {"type": "Point", "coordinates": [-6.221411, 53.457111]}, "properties": {"xid": "W228011510", "name": "Mizzoni Pizza & Pasta Co", "rate": 1, "osm": "way/228011510", "kinds": "fast_food,foods,tourist_facilities"}, "Photo": "null", "Website": "null"}, {"type": "Feature", "id": "118903", "geometry": {"type": "Point", "coordinates": [-6.223127, 53.454826]}, "properties": {"xid": "W228013020", "name": "The Lord Mayors", "rate": 1, "osm": "way/228013020", "kinds": "pubs,foods,tourist_facilities"}, "Photo": "null", "Website": "null"}, {"type": "Feature", "id": "118966", "geometry": {"type": "Point", "coordinates": [-6.219141, 53.460789]}, "properties": {"xid": "W228050461", "name": "Swords & District Credit Union", "rate": 1, "osm": "way/228050461", "kinds": "bank,banks,tourist_facilities"}, "Photo": "null", "Website": "null"}, {"type": "Feature", "id": "119371", "geometry": {"type": "Point", "coordinates": [-6.204398, 53.295418]}, "properties": {"xid": "W228275750", "name": "Estate Service Station", "rate": 1, "osm": "way/228275750", "kinds": "shops,transport,conveniences,tourist_facilities,fuel"}, "Photo": "null", "Website": "null"}, {"type": "Feature", "id": "119386", "geometry": {"type": "Point", "coordinates": [-6.257221, 53.346199]}, "properties": {"xid": "W228286745", "name": "Chaplin's", "rate": 1, "osm": "way/228286745", "kinds": "pubs,foods,tourist_facilities"}, "Photo": "null", "Website": "null"}, {"type": "Feature", "id": "119396", "geometry": {"type": "Point", "coordinates": [-6.257941, 53.345814]}, "properties": {"xid": "W228290004", "name": "Bowes", "rate": 1, "osm": "way/228290004", "kinds": "pubs,foods,tourist_facilities"}, "Photo": "null", "Website": "null"}, {"type": "Feature", "id": "119712", "geometry": {"type": "Point", "coordinates": [-6.205208, 53.288551]}, "properties": {"xid": "W228459038", "name": "Gotham South", "rate": 1, "osm": "way/228459038", "kinds": "restaurants,foods,tourist_facilities"}, "Photo": "null", "Website": "null"}, {"type": "Feature", "id": "120223", "geometry": {"type": "Point", "coordinates": [-6.267989, 53.346817]}, "properties": {"xid": "W228762032", "name": "Romano's", "rate": 1, "osm": "way/228762032", "kinds": "restaurants,foods,tourist_facilities"}, "Photo": "null", "Website": "null"}, {"type": "Feature", "id": "120224", "geometry": {"type": "Point", "coordinates": [-6.267974, 53.346714]}, "properties": {"xid": "W228762030", "name": "Fusciardi's", "rate": 1, "osm": "way/228762030", "kinds": "fast_food,foods,tourist_facilities"}, "Photo": "null", "Website": "null"}, {"type": "Feature", "id": "120609", "geometry": {"type": "Point", "coordinates": [-6.267321, 53.292419]}, "properties": {"xid": "W228963992", "name": "Aldi", "rate": 1, "osm": "way/228963992", "kinds": "shops,supermarkets,tourist_facilities"}, "Photo": "null", "Website": "null"}, {"type": "Feature", "id": "120817", "geometry": {"type": "Point", "coordinates": [-6.268367, 53.346851]}, "properties": {"xid": "W229057387", "name": "Camerino", "rate": 1, "osm": "way/229057387", "kinds": "shops,bakeries,tourist_facilities"}, "Photo": "null", "Website": "null"}, {"type": "Feature", "id": "120818", "geometry": {"type": "Point", "coordinates": [-6.268438, 53.347103]}, "properties": {"xid": "W229057383", "name": "Brother Hubbard", "rate": 1, "osm": "way/229057383", "kinds": "cafes,foods,tourist_facilities"}, "Photo": "null", "Website": "null"}, {"type": "Feature", "id": "120828", "geometry": {"type": "Point", "coordinates": [-6.268888, 53.348198]}, "properties": {"xid": "W229061148", "name": "Walk this way", "rate": 1, "osm": "way/229061148", "kinds": "shops,outdoor,tourist_facilities"}, "Photo": "null", "Website": "null"}, {"type": "Feature", "id": "121387", "geometry": {"type": "Point", "coordinates": [-6.262715, 53.342224]}, "properties": {"xid": "W229316784", "name": "J. Grogan's", "rate": 1, "osm": "way/229316784", "kinds": "pubs,foods,tourist_facilities"}, "Photo": "null", "Website": "null"}, {"type": "Feature", "id": "121541", "geometry": {"type": "Point", "coordinates": [-6.281691, 53.343102]}, "properties": {"xid": "W229376152", "name": "Arthur's", "rate": 1, "osm": "way/229376152", "kinds": "pubs,foods,tourist_facilities"}, "Photo": "null", "Website": "null"}, {"type": "Feature", "id": "121611", "geometry": {"type": "Point", "coordinates": [-6.290739, 53.25671]}, "properties": {"xid": "W229407221", "name": "The Hazel House", "rate": 1, "osm": "way/229407221", "kinds": "cafes,foods,tourist_facilities"}, "Photo": "null", "Website": "null"}, {"type": "Feature", "id": "121738", "geometry": {"type": "Point", "coordinates": [-6.278913, 53.342667]}, "properties": {"xid": "W229456566", "name": "Baker's Bar & Irish Restaurant", "rate": 1, "osm": "way/229456566", "kinds": "pubs,foods,tourist_facilities"}, "Photo": "null", "Website": "null"}, {"type": "Feature", "id": "122353", "geometry": {"type": "Point", "coordinates": [-6.179536, 53.605732]}, "properties": {"xid": "W229761067", "name": "Lidl", "rate": 1, "osm": "way/229761067", "kinds": "shops,supermarkets,tourist_facilities"}, "Photo": "null", "Website": "null"}, {"type": "Feature", "id": "123084", "geometry": {"type": "Point", "coordinates": [-6.267814, 53.345173]}, "properties": {"xid": "W230101444", "name": "Di Fontaine\u2019s New York Pizzeria", "rate": 1, "osm": "way/230101444", "kinds": "fast_food,foods,tourist_facilities"}, "Photo": "null", "Website": "null"}, {"type": "Feature", "id": "123188", "geometry": {"type": "Point", "coordinates": [-6.267419, 53.345135]}, "properties": {"xid": "W230133865", "name": "Porterhouse", "rate": 1, "osm": "way/230133865", "kinds": "pubs,foods,tourist_facilities"}, "Photo": "null", "Website": "null"}, {"type": "Feature", "id": "123708", "geometry": {"type": "Point", "coordinates": [-6.26311, 53.341068]}, "properties": {"xid": "W230356665", "name": "Busyfeet & Coco Cafe", "rate": 1, "osm": "way/230356665", "kinds": "cafes,foods,tourist_facilities"}, "Photo": "null", "Website": "null"}, {"type": "Feature", "id": "123955", "geometry": {"type": "Point", "coordinates": [-6.260412, 53.340034]}, "properties": {"xid": "W230479381", "name": "Permanent TSB", "rate": 1, "osm": "way/230479381", "kinds": "bank,banks,tourist_facilities"}, "Photo": "null", "Website": "null"}, {"type": "Feature", "id": "124181", "geometry": {"type": "Point", "coordinates": [-6.261812, 53.340946]}, "properties": {"xid": "W230567954", "name": "Sheehan's", "rate": 1, "osm": "way/230567954", "kinds": "pubs,foods,tourist_facilities"}, "Photo": "null", "Website": "null"}, {"type": "Feature", "id": "124189", "geometry": {"type": "Point", "coordinates": [-6.258775, 53.340096]}, "properties": {"xid": "W230569648", "name": "Peruke & Periwig", "rate": 1, "osm": "way/230569648", "kinds": "restaurants,foods,tourist_facilities"}, "Photo": "null", "Website": "null"}, {"type": "Feature", "id": "124273", "geometry": {"type": "Point", "coordinates": [-6.259495, 53.341187]}, "properties": {"xid": "W230613179", "name": "Kehoes Pub", "rate": 1, "osm": "way/230613179", "kinds": "pubs,foods,tourist_facilities"}, "Photo": "null", "Website": "null"}, {"type": "Feature", "id": "124302", "geometry": {"type": "Point", "coordinates": [-6.251725, 53.275723]}, "properties": {"xid": "W230621251", "name": "Maxol Mace", "rate": 1, "osm": "way/230621251", "kinds": "transport,tourist_facilities,fuel"}, "Photo": "null", "Website": "null"}, {"type": "Feature", "id": "124974", "geometry": {"type": "Point", "coordinates": [-6.215135, 53.361767]}, "properties": {"xid": "W230948516", "name": "The Yacht", "rate": 1, "osm": "way/230948516", "kinds": "pubs,foods,tourist_facilities"}, "Photo": "null", "Website": "null"}, {"type": "Feature", "id": "125331", "geometry": {"type": "Point", "coordinates": [-6.265709, 53.341282]}, "properties": {"xid": "W231112845", "name": "Darwins", "rate": 1, "osm": "way/231112845", "kinds": "restaurants,foods,tourist_facilities"}, "Photo": "null", "Website": "null"}, {"type": "Feature", "id": "125332", "geometry": {"type": "Point", "coordinates": [-6.265683, 53.341347]}, "properties": {"xid": "W231112850", "name": "Snax in the City", "rate": 1, "osm": "way/231112850", "kinds": "cafes,foods,tourist_facilities"}, "Photo": "null", "Website": "null"}, {"type": "Feature", "id": "125527", "geometry": {"type": "Point", "coordinates": [-6.254059, 53.338409]}, "properties": {"xid": "W231199025", "name": "Spar", "rate": 1, "osm": "way/231199025", "kinds": "shops,conveniences,tourist_facilities"}, "Photo": "null", "Website": "null"}, {"type": "Feature", "id": "125528", "geometry": {"type": "Point", "coordinates": [-6.254427, 53.338493]}, "properties": {"xid": "W231199021", "name": "Hugos", "rate": 1, "osm": "way/231199021", "kinds": "restaurants,foods,tourist_facilities"}, "Photo": "null", "Website": "null"}, {"type": "Feature", "id": "125529", "geometry": {"type": "Point", "coordinates": [-6.254319, 53.33847]}, "properties": {"xid": "W231199026", "name": "Caff\u00e8 Nero", "rate": 1, "osm": "way/231199026", "kinds": "cafes,foods,tourist_facilities"}, "Photo": "null", "Website": "null"}, {"type": "Feature", "id": "125530", "geometry": {"type": "Point", "coordinates": [-6.253772, 53.338326]}, "properties": {"xid": "W231199022", "name": "Foley's", "rate": 1, "osm": "way/231199022", "kinds": "pubs,foods,tourist_facilities"}, "Photo": "null", "Website": "null"}, {"type": "Feature", "id": "125641", "geometry": {"type": "Point", "coordinates": [-6.253253, 53.338203]}, "properties": {"xid": "W231245952", "name": "Rhubarb Caf\u00e9", "rate": 1, "osm": "way/231245952", "kinds": "restaurants,foods,tourist_facilities"}, "Photo": "null", "Website": "null"}, {"type": "Feature", "id": "125698", "geometry": {"type": "Point", "coordinates": [-6.252536, 53.341999]}, "properties": {"xid": "W231265715", "name": "Lincoln's Inn", "rate": 1, "osm": "way/231265715", "kinds": "pubs,foods,tourist_facilities"}, "Photo": "null", "Website": "null"}, {"type": "Feature", "id": "127003", "geometry": {"type": "Point", "coordinates": [-6.192857, 53.376083]}, "properties": {"xid": "W231850113", "name": "Top Oil", "rate": 1, "osm": "way/231850113", "kinds": "transport,tourist_facilities,fuel"}, "Photo": "null", "Website": "null"}, {"type": "Feature", "id": "127009", "geometry": {"type": "Point", "coordinates": [-6.232121, 53.357101]}, "properties": {"xid": "W231852057", "name": "Aldi", "rate": 1, "osm": "way/231852057", "kinds": "shops,supermarkets,tourist_facilities"}, "Photo": "null", "Website": "null"}, {"type": "Feature", "id": "127379", "geometry": {"type": "Point", "coordinates": [-6.242858, 53.337917]}, "properties": {"xid": "W232012714", "name": "Scruffy Murphy's", "rate": 1, "osm": "way/232012714", "kinds": "pubs,foods,tourist_facilities"}, "Photo": "null", "Website": "null"}, {"type": "Feature", "id": "129917", "geometry": {"type": "Point", "coordinates": [-6.251546, 53.338028]}, "properties": {"xid": "W233217790", "name": "Tesco", "rate": 1, "osm": "way/233217790", "kinds": "shops,supermarkets,tourist_facilities"}, "Photo": "null", "Website": "null"}, {"type": "Feature", "id": "130537", "geometry": {"type": "Point", "coordinates": [-6.253744, 53.350166]}, "properties": {"xid": "W233487789", "name": "Citibank", "rate": 1, "osm": "way/233487789", "kinds": "bank,banks,tourist_facilities"}, "Photo": "null", "Website": "null"}, {"type": "Feature", "id": "130582", "geometry": {"type": "Point", "coordinates": [-6.195615, 53.359539]}, "properties": {"xid": "W233506995", "name": "Moloughney's", "rate": 1, "osm": "way/233506995", "kinds": "restaurants,foods,tourist_facilities"}, "Photo": "null", "Website": "null"}, {"type": "Feature", "id": "130583", "geometry": {"type": "Point", "coordinates": [-6.195896, 53.359184]}, "properties": {"xid": "W233507010", "name": "Kennedys", "rate": 1, "osm": "way/233507010", "kinds": "cafes,foods,tourist_facilities"}, "Photo": "null", "Website": "null"}, {"type": "Feature", "id": "130597", "geometry": {"type": "Point", "coordinates": [-6.257493, 53.348858]}, "properties": {"xid": "W233516829", "name": "Gala Express", "rate": 1, "osm": "way/233516829", "kinds": "shops,conveniences,tourist_facilities"}, "Photo": "null", "Website": "null"}, {"type": "Feature", "id": "130906", "geometry": {"type": "Point", "coordinates": [-6.265895, 53.347481]}, "properties": {"xid": "W233666288", "name": "T.P. Smiths", "rate": 1, "osm": "way/233666288", "kinds": "pubs,foods,tourist_facilities"}, "Photo": "null", "Website": "null"}, {"type": "Feature", "id": "130922", "geometry": {"type": "Point", "coordinates": [-6.281599, 53.347477]}, "properties": {"xid": "W233674051", "name": "H. Mathews", "rate": 1, "osm": "way/233674051", "kinds": "pubs,foods,tourist_facilities"}, "Photo": "null", "Website": "null"}, {"type": "Feature", "id": "131158", "geometry": {"type": "Point", "coordinates": [-6.256001, 53.348331]}, "properties": {"xid": "W233801731", "name": "The Wiley Fox", "rate": 1, "osm": "way/233801731", "kinds": "pubs,foods,tourist_facilities"}, "Photo": "null", "Website": "null"}, {"type": "Feature", "id": "131248", "geometry": {"type": "Point", "coordinates": [-6.264462, 53.329849]}, "properties": {"xid": "W233845081", "name": "Grove Road", "rate": 1, "osm": "way/233845081", "kinds": "cafes,foods,tourist_facilities"}, "Photo": "null", "Website": "null"}, {"type": "Feature", "id": "131773", "geometry": {"type": "Point", "coordinates": [-6.248398, 53.336658]}, "properties": {"xid": "W234082882", "name": "Spar", "rate": 1, "osm": "way/234082882", "kinds": "shops,supermarkets,tourist_facilities"}, "Photo": "null", "Website": "null"}, {"type": "Feature", "id": "137716", "geometry": {"type": "Point", "coordinates": [-6.105042, 53.278133]}, "properties": {"xid": "W237237103", "name": "The Queen's", "rate": 1, "osm": "way/237237103", "kinds": "pubs,foods,tourist_facilities"}, "Photo": "null", "Website": "null"}, {"type": "Feature", "id": "138434", "geometry": {"type": "Point", "coordinates": [-6.100148, 53.204945]}, "properties": {"xid": "W237681083", "name": "Daata Tandoori", "rate": 1, "osm": "way/237681083", "kinds": "fast_food,foods,tourist_facilities"}, "Photo": "null", "Website": "null"}, {"type": "Feature", "id": "138845", "geometry": {"type": "Point", "coordinates": [-6.292657, 53.198868]}, "properties": {"xid": "W237902248", "name": "Armory Cafe", "rate": 1, "osm": "way/237902248", "kinds": "cafes,foods,tourist_facilities"}, "Photo": "null", "Website": "null"}, {"type": "Feature", "id": "138887", "geometry": {"type": "Point", "coordinates": [-6.104892, 53.277477]}, "properties": {"xid": "W237916664", "name": "The King's Inn", "rate": 1, "osm": "way/237916664", "kinds": "pubs,foods,tourist_facilities"}, "Photo": "null", "Website": "null"}, {"type": "Feature", "id": "138942", "geometry": {"type": "Point", "coordinates": [-6.10728, 53.27779]}, "properties": {"xid": "W237947227", "name": "Ivory", "rate": 1, "osm": "way/237947227", "kinds": "pubs,foods,tourist_facilities"}, "Photo": "null", "Website": "null"}, {"type": "Feature", "id": "139855", "geometry": {"type": "Point", "coordinates": [-6.235217, 53.303932]}, "properties": {"xid": "W238328026", "name": "Prestige 24-7", "rate": 1, "osm": "way/238328026", "kinds": "transport,tourist_facilities,car_wash"}, "Photo": "null", "Website": "null"}, {"type": "Feature", "id": "141570", "geometry": {"type": "Point", "coordinates": [-6.237151, 53.316025]}, "properties": {"xid": "W239198137", "name": "Ashtons", "rate": 1, "osm": "way/239198137", "kinds": "pubs,foods,tourist_facilities"}, "Photo": "null", "Website": "null"}, {"type": "Feature", "id": "143014", "geometry": {"type": "Point", "coordinates": [-6.239814, 53.411045]}, "properties": {"xid": "W239974329", "name": "Dollar Thrifty", "rate": 1, "osm": "way/239974329", "kinds": "transport,car_rental,tourist_facilities"}, "Photo": "null", "Website": "null"}, {"type": "Feature", "id": "145700", "geometry": {"type": "Point", "coordinates": [-6.381502, 53.388412]}, "properties": {"xid": "W241524671", "name": "Mace", "rate": 1, "osm": "way/241524671", "kinds": "shops,conveniences,tourist_facilities"}, "Photo": "null", "Website": "null"}, {"type": "Feature", "id": "147324", "geometry": {"type": "Point", "coordinates": [-6.282206, 53.310654]}, "properties": {"xid": "W242471572", "name": "ALDI", "rate": 1, "osm": "way/242471572", "kinds": "shops,supermarkets,tourist_facilities"}, "Photo": "null", "Website": "null"}, {"type": "Feature", "id": "152067", "geometry": {"type": "Point", "coordinates": [-6.308038, 53.346603]}, "properties": {"xid": "W244844358", "name": "Black and Amber (Closed)", "rate": 1, "osm": "way/244844358", "kinds": "pubs,foods,tourist_facilities"}, "Photo": "null", "Website": "null"}, {"type": "Feature", "id": "152617", "geometry": {"type": "Point", "coordinates": [-6.257844, 53.348843]}, "properties": {"xid": "W245124093", "name": "The Flowing Tide", "rate": 1, "osm": "way/245124093", "kinds": "pubs,foods,tourist_facilities"}, "Photo": "null", "Website": "null"}, {"type": "Feature", "id": "158407", "geometry": {"type": "Point", "coordinates": [-6.25167, 53.337563]}, "properties": {"xid": "W249196120", "name": "Caf\u00e9 Boulevard", "rate": 1, "osm": "way/249196120", "kinds": "cafes,foods,tourist_facilities"}, "Photo": "null", "Website": "null"}, {"type": "Feature", "id": "158438", "geometry": {"type": "Point", "coordinates": [-6.25245, 53.33773]}, "properties": {"xid": "W249212894", "name": "James Toner", "rate": 1, "osm": "way/249212894", "kinds": "pubs,foods,tourist_facilities"}, "Photo": "null", "Website": "null"}, {"type": "Feature", "id": "158500", "geometry": {"type": "Point", "coordinates": [-6.260393, 53.341682]}, "properties": {"xid": "W249263083", "name": "Bewley's Cafe", "rate": 1, "osm": "way/249263083", "kinds": "cafes,foods,tourist_facilities"}, "Photo": "null", "Website": "null"}, {"type": "Feature", "id": "158501", "geometry": {"type": "Point", "coordinates": [-6.260885, 53.341343]}, "properties": {"xid": "W249263084", "name": "Bruxelles", "rate": 1, "osm": "way/249263084", "kinds": "pubs,foods,tourist_facilities"}, "Photo": "null", "Website": "null"}, {"type": "Feature", "id": "158508", "geometry": {"type": "Point", "coordinates": [-6.262554, 53.343975]}, "properties": {"xid": "W249268180", "name": "The Bankers", "rate": 1, "osm": "way/249268180", "kinds": "pubs,foods,tourist_facilities"}, "Photo": "null", "Website": "null"}, {"type": "Feature", "id": "159059", "geometry": {"type": "Point", "coordinates": [-6.3679, 53.351368]}, "properties": {"xid": "W249629274", "name": "Palmerstown Credit Union", "rate": 1, "osm": "way/249629274", "kinds": "bank,banks,tourist_facilities"}, "Photo": "null", "Website": "null"}, {"type": "Feature", "id": "159060", "geometry": {"type": "Point", "coordinates": [-6.36866, 53.351494]}, "properties": {"xid": "W249630726", "name": "Easy as Pie", "rate": 1, "osm": "way/249630726", "kinds": "cafes,foods,tourist_facilities"}, "Photo": "null", "Website": "null"}, {"type": "Feature", "id": "159061", "geometry": {"type": "Point", "coordinates": [-6.368338, 53.351456]}, "properties": {"xid": "W249630730", "name": "Mace", "rate": 1, "osm": "way/249630730", "kinds": "shops,conveniences,tourist_facilities"}, "Photo": "null", "Website": "null"}, {"type": "Feature", "id": "159065", "geometry": {"type": "Point", "coordinates": [-6.369094, 53.351543]}, "properties": {"xid": "W249631425", "name": "Yummy Noodle Box", "rate": 1, "osm": "way/249631425", "kinds": "fast_food,foods,tourist_facilities"}, "Photo": "null", "Website": "null"}, {"type": "Feature", "id": "159066", "geometry": {"type": "Point", "coordinates": [-6.368853, 53.355541]}, "properties": {"xid": "W249634355", "name": "The Coach House", "rate": 1, "osm": "way/249634355", "kinds": "cafes,foods,tourist_facilities"}, "Photo": "null", "Website": "null"}, {"type": "Feature", "id": "160212", "geometry": {"type": "Point", "coordinates": [-6.26032, 53.348457]}, "properties": {"xid": "W250504040", "name": "The Oval", "rate": 1, "osm": "way/250504040", "kinds": "pubs,foods,tourist_facilities"}, "Photo": "null", "Website": "null"}, {"type": "Feature", "id": "160275", "geometry": {"type": "Point", "coordinates": [-6.259762, 53.347584]}, "properties": {"xid": "W250534295", "name": "Starbucks", "rate": 1, "osm": "way/250534295", "kinds": "cafes,foods,tourist_facilities"}, "Photo": "null", "Website": "null"}, {"type": "Feature", "id": "161292", "geometry": {"type": "Point", "coordinates": [-6.261621, 53.340721]}, "properties": {"xid": "W251400325", "name": "Sweet Nosh", "rate": 1, "osm": "way/251400325", "kinds": "cafes,foods,tourist_facilities"}, "Photo": "null", "Website": "null"}, {"type": "Feature", "id": "163211", "geometry": {"type": "Point", "coordinates": [-6.26161, 53.359001]}, "properties": {"xid": "W252713065", "name": "The Auld Triangle", "rate": 1, "osm": "way/252713065", "kinds": "pubs,foods,tourist_facilities"}, "Photo": "null", "Website": "null"}, {"type": "Feature", "id": "163318", "geometry": {"type": "Point", "coordinates": [-6.260821, 53.354286]}, "properties": {"xid": "W252786989", "name": "Cobalt Cafe & Gallery", "rate": 1, "osm": "way/252786989", "kinds": "cafes,foods,tourist_facilities"}, "Photo": "null", "Website": "null"}, {"type": "Feature", "id": "163363", "geometry": {"type": "Point", "coordinates": [-6.259674, 53.353558]}, "properties": {"xid": "W252809422", "name": "Brazuca's", "rate": 1, "osm": "way/252809422", "kinds": "shops,conveniences,tourist_facilities"}, "Photo": "null", "Website": "null"}, {"type": "Feature", "id": "163371", "geometry": {"type": "Point", "coordinates": [-6.260875, 53.353016]}, "properties": {"xid": "W252812513", "name": "Kimchi", "rate": 1, "osm": "way/252812513", "kinds": "restaurants,foods,tourist_facilities"}, "Photo": "null", "Website": "null"}, {"type": "Feature", "id": "163372", "geometry": {"type": "Point", "coordinates": [-6.260802, 53.35305]}, "properties": {"xid": "W252812514", "name": "Hophouse", "rate": 1, "osm": "way/252812514", "kinds": "pubs,foods,tourist_facilities"}, "Photo": "null", "Website": "null"}, {"type": "Feature", "id": "163373", "geometry": {"type": "Point", "coordinates": [-6.260441, 53.353222]}, "properties": {"xid": "W252812519", "name": "The Metro", "rate": 1, "osm": "way/252812519", "kinds": "foods,bars,tourist_facilities"}, "Photo": "null", "Website": "null"}, {"type": "Feature", "id": "174728", "geometry": {"type": "Point", "coordinates": [-6.304749, 53.398632]}, "properties": {"xid": "W259900407", "name": "Aldi", "rate": 1, "osm": "way/259900407", "kinds": "shops,supermarkets,tourist_facilities"}, "Photo": "null", "Website": "null"}, {"type": "Feature", "id": "175339", "geometry": {"type": "Point", "coordinates": [-6.259649, 53.343208]}, "properties": {"xid": "W260261079", "name": "Ulster Bank", "rate": 1, "osm": "way/260261079", "kinds": "bank,banks,tourist_facilities"}, "Photo": "null", "Website": "null"}, {"type": "Feature", "id": "175429", "geometry": {"type": "Point", "coordinates": [-6.261609, 53.343445]}, "properties": {"xid": "W260313485", "name": "Salamanca", "rate": 1, "osm": "way/260313485", "kinds": "restaurants,foods,tourist_facilities"}, "Photo": "null", "Website": "null"}, {"type": "Feature", "id": "179165", "geometry": {"type": "Point", "coordinates": [-6.275209, 53.360561]}, "properties": {"xid": "W262602277", "name": "Continental", "rate": 1, "osm": "way/262602277", "kinds": "shops,supermarkets,tourist_facilities"}, "Photo": "null", "Website": "null"}, {"type": "Feature", "id": "180482", "geometry": {"type": "Point", "coordinates": [-6.275463, 53.332397]}, "properties": {"xid": "W263470974", "name": "The Headline Bar", "rate": 1, "osm": "way/263470974", "kinds": "pubs,foods,tourist_facilities"}, "Photo": "null", "Website": "null"}, {"type": "Feature", "id": "181344", "geometry": {"type": "Point", "coordinates": [-6.358901, 53.342373]}, "properties": {"xid": "W264029838", "name": "O' Shea's 79 Inn", "rate": 1, "osm": "way/264029838", "kinds": "pubs,foods,tourist_facilities"}, "Photo": "null", "Website": "null"}, {"type": "Feature", "id": "182177", "geometry": {"type": "Point", "coordinates": [-6.335988, 53.289421]}, "properties": {"xid": "W264466100", "name": "Topaz", "rate": 1, "osm": "way/264466100", "kinds": "transport,tourist_facilities,fuel"}, "Photo": "null", "Website": "null"}, {"type": "Feature", "id": "182178", "geometry": {"type": "Point", "coordinates": [-6.335868, 53.289425]}, "properties": {"xid": "W264466097", "name": "Re Store", "rate": 1, "osm": "way/264466097", "kinds": "shops,conveniences,tourist_facilities"}, "Photo": "null", "Website": "null"}, {"type": "Feature", "id": "182654", "geometry": {"type": "Point", "coordinates": [-6.263435, 53.3419]}, "properties": {"xid": "W264742301", "name": "Drury Buildings", "rate": 1, "osm": "way/264742301", "kinds": "restaurants,foods,tourist_facilities"}, "Photo": "null", "Website": "null"}, {"type": "Feature", "id": "184941", "geometry": {"type": "Point", "coordinates": [-6.56715, 53.296917]}, "properties": {"xid": "W266251297", "name": "Ardclough GAA Clubhouse", "rate": 1, "osm": "way/266251297", "kinds": "pubs,foods,tourist_facilities"}, "Photo": "null", "Website": "null"}, {"type": "Feature", "id": "185072", "geometry": {"type": "Point", "coordinates": [-6.261035, 53.385742]}, "properties": {"xid": "W266357832", "name": "Main Restaurant (PR)", "rate": 1, "osm": "way/266357832", "kinds": "restaurants,foods,tourist_facilities"}, "Photo": "null", "Website": "null"}, {"type": "Feature", "id": "185098", "geometry": {"type": "Point", "coordinates": [-6.323391, 53.366077]}, "properties": {"xid": "W266390284", "name": "Hole in the Wall", "rate": 1, "osm": "way/266390284", "kinds": "pubs,foods,tourist_facilities"}, "Photo": "null", "Website": "null"}, {"type": "Feature", "id": "185178", "geometry": {"type": "Point", "coordinates": [-6.297905, 53.387489]}, "properties": {"xid": "W266458768", "name": "Permanent TSB", "rate": 1, "osm": "way/266458768", "kinds": "bank,banks,tourist_facilities"}, "Photo": "null", "Website": "null"}, {"type": "Feature", "id": "187294", "geometry": {"type": "Point", "coordinates": [-6.26532, 53.343964]}, "properties": {"xid": "W268687348", "name": "Berlin", "rate": 1, "osm": "way/268687348", "kinds": "cafes,foods,tourist_facilities"}, "Photo": "null", "Website": "null"}, {"type": "Feature", "id": "187384", "geometry": {"type": "Point", "coordinates": [-6.259074, 53.340752]}, "properties": {"xid": "W268836002", "name": "Caf\u00e9 en Seine", "rate": 1, "osm": "way/268836002", "kinds": "foods,bars,tourist_facilities"}, "Photo": "null", "Website": "null"}, {"type": "Feature", "id": "187385", "geometry": {"type": "Point", "coordinates": [-6.258707, 53.340664]}, "properties": {"xid": "W268836005", "name": "Caf\u00e9 en Seine", "rate": 1, "osm": "way/268836005", "kinds": "foods,bars,tourist_facilities"}, "Photo": "null", "Website": "null"}, {"type": "Feature", "id": "187391", "geometry": {"type": "Point", "coordinates": [-6.258792, 53.340466]}, "properties": {"xid": "W268837280", "name": "Sams Bar", "rate": 1, "osm": "way/268837280", "kinds": "foods,bars,tourist_facilities"}, "Photo": "null", "Website": "null"}, {"type": "Feature", "id": "187397", "geometry": {"type": "Point", "coordinates": [-6.258869, 53.339764]}, "properties": {"xid": "W268843105", "name": "Dawson Lounge", "rate": 1, "osm": "way/268843105", "kinds": "foods,bars,tourist_facilities"}, "Photo": "null", "Website": "null"}, {"type": "Feature", "id": "187400", "geometry": {"type": "Point", "coordinates": [-6.258391, 53.341721]}, "properties": {"xid": "W268844930", "name": "Featherblade", "rate": 1, "osm": "way/268844930", "kinds": "restaurants,foods,tourist_facilities"}, "Photo": "null", "Website": "null"}, {"type": "Feature", "id": "188516", "geometry": {"type": "Point", "coordinates": [-6.376914, 53.377926]}, "properties": {"xid": "W270243788", "name": "Centra", "rate": 1, "osm": "way/270243788", "kinds": "shops,conveniences,tourist_facilities"}, "Photo": "null", "Website": "null"}, {"type": "Feature", "id": "188518", "geometry": {"type": "Point", "coordinates": [-6.376563, 53.377766]}, "properties": {"xid": "W270243789", "name": "Kavanagh's of Castleknock", "rate": 1, "osm": "way/270243789", "kinds": "pubs,foods,tourist_facilities"}, "Photo": "null", "Website": "null"}, {"type": "Feature", "id": "188534", "geometry": {"type": "Point", "coordinates": [-6.37464, 53.38567]}, "properties": {"xid": "W270249406", "name": "Mace", "rate": 1, "osm": "way/270249406", "kinds": "shops,conveniences,tourist_facilities"}, "Photo": "null", "Website": "null"}, {"type": "Feature", "id": "189487", "geometry": {"type": "Point", "coordinates": [-6.264544, 53.327198]}, "properties": {"xid": "W271450112", "name": "New Empire", "rate": 1, "osm": "way/271450112", "kinds": "fast_food,foods,tourist_facilities"}, "Photo": "null", "Website": "null"}, {"type": "Feature", "id": "189488", "geometry": {"type": "Point", "coordinates": [-6.264618, 53.326893]}, "properties": {"xid": "W271450113", "name": "Blackbird", "rate": 1, "osm": "way/271450113", "kinds": "pubs,foods,tourist_facilities"}, "Photo": "null", "Website": "null"}, {"type": "Feature", "id": "189639", "geometry": {"type": "Point", "coordinates": [-6.260925, 53.340168]}, "properties": {"xid": "W271683604", "name": "O'Briens", "rate": 1, "osm": "way/271683604", "kinds": "fast_food,foods,tourist_facilities"}, "Photo": "null", "Website": "null"}, {"type": "Feature", "id": "189882", "geometry": {"type": "Point", "coordinates": [-6.259305, 53.342945]}, "properties": {"xid": "W271973520", "name": "Burger King", "rate": 1, "osm": "way/271973520", "kinds": "fast_food,foods,tourist_facilities"}, "Photo": "null", "Website": "null"}, {"type": "Feature", "id": "189908", "geometry": {"type": "Point", "coordinates": [-6.259033, 53.343033]}, "properties": {"xid": "W271989538", "name": "Subway", "rate": 1, "osm": "way/271989538", "kinds": "fast_food,foods,tourist_facilities"}, "Photo": "null", "Website": "null"}, {"type": "Feature", "id": "189909", "geometry": {"type": "Point", "coordinates": [-6.258934, 53.343014]}, "properties": {"xid": "W271989540", "name": "Porterhouse Central", "rate": 1, "osm": "way/271989540", "kinds": "pubs,foods,tourist_facilities"}, "Photo": "null", "Website": "null"}, {"type": "Feature", "id": "191040", "geometry": {"type": "Point", "coordinates": [-6.261049, 53.341202]}, "properties": {"xid": "W273202992", "name": "McDaid's", "rate": 1, "osm": "way/273202992", "kinds": "pubs,foods,tourist_facilities"}, "Photo": "null", "Website": "null"}, {"type": "Feature", "id": "191487", "geometry": {"type": "Point", "coordinates": [-6.264673, 53.342815]}, "properties": {"xid": "W273520545", "name": "Yamamori", "rate": 1, "osm": "way/273520545", "kinds": "restaurants,foods,tourist_facilities"}, "Photo": "null", "Website": "null"}, {"type": "Feature", "id": "191508", "geometry": {"type": "Point", "coordinates": [-6.243674, 53.320084]}, "properties": {"xid": "W273534804", "name": "Sandford Service Station", "rate": 1, "osm": "way/273534804", "kinds": "transport,tourist_facilities,fuel"}, "Photo": "null", "Website": "null"}, {"type": "Feature", "id": "191620", "geometry": {"type": "Point", "coordinates": [-6.254835, 53.321022]}, "properties": {"xid": "W273636619", "name": "Mima", "rate": 1, "osm": "way/273636619", "kinds": "cafes,foods,tourist_facilities"}, "Photo": "null", "Website": "null"}, {"type": "Feature", "id": "191630", "geometry": {"type": "Point", "coordinates": [-6.261938, 53.342907]}, "properties": {"xid": "W273646172", "name": "Lemon", "rate": 1, "osm": "way/273646172", "kinds": "cafes,foods,tourist_facilities"}, "Photo": "null", "Website": "null"}, {"type": "Feature", "id": "191640", "geometry": {"type": "Point", "coordinates": [-6.262392, 53.342552]}, "properties": {"xid": "W273647938", "name": "Alfie's", "rate": 1, "osm": "way/273647938", "kinds": "restaurants,foods,tourist_facilities"}, "Photo": "null", "Website": "null"}, {"type": "Feature", "id": "191648", "geometry": {"type": "Point", "coordinates": [-6.262855, 53.342045]}, "properties": {"xid": "W273652102", "name": "SOLE", "rate": 1, "osm": "way/273652102", "kinds": "restaurants,foods,tourist_facilities"}, "Photo": "null", "Website": "null"}, {"type": "Feature", "id": "191672", "geometry": {"type": "Point", "coordinates": [-6.260219, 53.339985]}, "properties": {"xid": "W273674456", "name": "Insomnia", "rate": 1, "osm": "way/273674456", "kinds": "cafes,foods,tourist_facilities"}, "Photo": "null", "Website": "null"}, {"type": "Feature", "id": "191929", "geometry": {"type": "Point", "coordinates": [-6.263171, 53.340981]}, "properties": {"xid": "W273908075", "name": "Taste Food Company", "rate": 1, "osm": "way/273908075", "kinds": "restaurants,foods,tourist_facilities"}, "Photo": "null", "Website": "null"}, {"type": "Feature", "id": "191965", "geometry": {"type": "Point", "coordinates": [-6.261767, 53.343647]}, "properties": {"xid": "W273958448", "name": "Number 1 Shop", "rate": 1, "osm": "way/273958448", "kinds": "shops,conveniences,tourist_facilities"}, "Photo": "null", "Website": "null"}, {"type": "Feature", "id": "191966", "geometry": {"type": "Point", "coordinates": [-6.262224, 53.344021]}, "properties": {"xid": "W273958442", "name": "Keogh's Cafe", "rate": 1, "osm": "way/273958442", "kinds": "cafes,foods,tourist_facilities"}, "Photo": "null", "Website": "null"}, {"type": "Feature", "id": "191979", "geometry": {"type": "Point", "coordinates": [-6.259388, 53.346634]}, "properties": {"xid": "W273989891", "name": "Griffin's Londis", "rate": 1, "osm": "way/273989891", "kinds": "shops,conveniences,tourist_facilities"}, "Photo": "null", "Website": "null"}, {"type": "Feature", "id": "191981", "geometry": {"type": "Point", "coordinates": [-6.259454, 53.346073]}, "properties": {"xid": "W273989881", "name": "TGI Friday's", "rate": 1, "osm": "way/273989881", "kinds": "restaurants,foods,tourist_facilities"}, "Photo": "null", "Website": "null"}, {"type": "Feature", "id": "191982", "geometry": {"type": "Point", "coordinates": [-6.259435, 53.346359]}, "properties": {"xid": "W273989888", "name": "KFC", "rate": 1, "osm": "way/273989888", "kinds": "fast_food,foods,tourist_facilities"}, "Photo": "null", "Website": "null"}, {"type": "Feature", "id": "191985", "geometry": {"type": "Point", "coordinates": [-6.261953, 53.342957]}, "properties": {"xid": "W273992974", "name": "Butlers Chocolate Cafe", "rate": 1, "osm": "way/273992974", "kinds": "cafes,foods,tourist_facilities"}, "Photo": "null", "Website": "null"}, {"type": "Feature", "id": "191989", "geometry": {"type": "Point", "coordinates": [-6.261712, 53.345581]}, "properties": {"xid": "W273993937", "name": "The Oliver St John Gogarty", "rate": 1, "osm": "way/273993937", "kinds": "pubs,foods,tourist_facilities"}, "Photo": "null", "Website": "null"}, {"type": "Feature", "id": "192212", "geometry": {"type": "Point", "coordinates": [-6.263031, 53.341194]}, "properties": {"xid": "W274213841", "name": "Metro Cafe", "rate": 1, "osm": "way/274213841", "kinds": "cafes,foods,tourist_facilities"}, "Photo": "null", "Website": "null"}, {"type": "Feature", "id": "192470", "geometry": {"type": "Point", "coordinates": [-6.262734, 53.344067]}, "properties": {"xid": "W274479667", "name": "The Millstone", "rate": 1, "osm": "way/274479667", "kinds": "restaurants,foods,tourist_facilities"}, "Photo": "null", "Website": "null"}, {"type": "Feature", "id": "193180", "geometry": {"type": "Point", "coordinates": [-6.262194, 53.343117]}, "properties": {"xid": "W275159990", "name": "The Old Stand", "rate": 1, "osm": "way/275159990", "kinds": "pubs,foods,tourist_facilities"}, "Photo": "null", "Website": "null"}, {"type": "Feature", "id": "193511", "geometry": {"type": "Point", "coordinates": [-6.257735, 53.340492]}, "properties": {"xid": "W275474134", "name": "Fire Restaurant and Lounge", "rate": 1, "osm": "way/275474134", "kinds": "restaurants,foods,tourist_facilities"}, "Photo": "null", "Website": "null"}, {"type": "Feature", "id": "193528", "geometry": {"type": "Point", "coordinates": [-6.25701, 53.336212]}, "properties": {"xid": "W275482803", "name": "Permanent TSB", "rate": 1, "osm": "way/275482803", "kinds": "bank,banks,tourist_facilities"}, "Photo": "null", "Website": "null"}, {"type": "Feature", "id": "195201", "geometry": {"type": "Point", "coordinates": [-6.53033, 53.171909]}, "properties": {"xid": "W277083381", "name": "SuperValu", "rate": 1, "osm": "way/277083381", "kinds": "shops,supermarkets,tourist_facilities"}, "Photo": "null", "Website": "null"}, {"type": "Feature", "id": "195298", "geometry": {"type": "Point", "coordinates": [-6.247225, 53.353539]}, "properties": {"xid": "W277201194", "name": "Top", "rate": 1, "osm": "way/277201194", "kinds": "transport,tourist_facilities,fuel"}, "Photo": "null", "Website": "null"}, {"type": "Feature", "id": "196446", "geometry": {"type": "Point", "coordinates": [-6.253929, 53.333523]}, "properties": {"xid": "W278310321", "name": "Starbucks", "rate": 1, "osm": "way/278310321", "kinds": "cafes,foods,tourist_facilities"}, "Photo": "null", "Website": "null"}, {"type": "Feature", "id": "197136", "geometry": {"type": "Point", "coordinates": [-6.254852, 53.338326]}, "properties": {"xid": "W279134296", "name": "Bang Restaurant", "rate": 1, "osm": "way/279134296", "wikidata": "Q37855053", "kinds": "restaurants,foods,tourist_facilities"}, "Photo": "http://upload.wikimedia.org/wikipedia/commons/thumb/6/6e/Bang_Logo.jpg/220px-Bang_Logo.jpg", "Website": "https://en.wikipedia.org/wiki/Bobby_Kerr_(businessman)"}, {"type": "Feature", "id": "197152", "geometry": {"type": "Point", "coordinates": [-6.252635, 53.337788]}, "properties": {"xid": "W279145273", "name": "Cirillos", "rate": 1, "osm": "way/279145273", "kinds": "restaurants,foods,tourist_facilities"}, "Photo": "null", "Website": "null"}, {"type": "Feature", "id": "197408", "geometry": {"type": "Point", "coordinates": [-6.252759, 53.341995]}, "properties": {"xid": "W279382544", "name": "Insomnia", "rate": 1, "osm": "way/279382544", "kinds": "cafes,foods,tourist_facilities"}, "Photo": "null", "Website": "null"}, {"type": "Feature", "id": "198449", "geometry": {"type": "Point", "coordinates": [-6.267178, 53.344551]}, "properties": {"xid": "W280181974", "name": "The Larder", "rate": 1, "osm": "way/280181974", "kinds": "cafes,foods,tourist_facilities"}, "Photo": "null", "Website": "null"}, {"type": "Feature", "id": "198463", "geometry": {"type": "Point", "coordinates": [-6.262852, 53.334347]}, "properties": {"xid": "W280190801", "name": "1900", "rate": 1, "osm": "way/280190801", "kinds": "restaurants,foods,tourist_facilities"}, "Photo": "null", "Website": "null"}, {"type": "Feature", "id": "199325", "geometry": {"type": "Point", "coordinates": [-6.254084, 53.337921]}, "properties": {"xid": "W281046955", "name": "Ely Wine Bar", "rate": 1, "osm": "way/281046955", "kinds": "foods,bars,tourist_facilities"}, "Photo": "null", "Website": "null"}, {"type": "Feature", "id": "200755", "geometry": {"type": "Point", "coordinates": [-6.277691, 53.382706]}, "properties": {"xid": "W282602614", "name": "Ballygall Credit Union Ltd.", "rate": 1, "osm": "way/282602614", "kinds": "bank,banks,tourist_facilities"}, "Photo": "null", "Website": "null"}, {"type": "Feature", "id": "201039", "geometry": {"type": "Point", "coordinates": [-6.260057, 53.404091]}, "properties": {"xid": "W282880126", "name": "McDonald's", "rate": 1, "osm": "way/282880126", "kinds": "fast_food,foods,tourist_facilities"}, "Photo": "null", "Website": "null"}, {"type": "Feature", "id": "201586", "geometry": {"type": "Point", "coordinates": [-6.265213, 53.395622]}, "properties": {"xid": "W283425176", "name": "The Towers", "rate": 1, "osm": "way/283425176", "kinds": "pubs,foods,tourist_facilities"}, "Photo": "null", "Website": "null"}, {"type": "Feature", "id": "201908", "geometry": {"type": "Point", "coordinates": [-6.264779, 53.333485]}, "properties": {"xid": "W283771391", "name": "The Bleeding Horse", "rate": 1, "osm": "way/283771391", "kinds": "pubs,foods,tourist_facilities"}, "Photo": "null", "Website": "null"}, {"type": "Feature", "id": "202237", "geometry": {"type": "Point", "coordinates": [-6.568888, 53.253044]}, "properties": {"xid": "W284121645", "name": "Kill Service Station", "rate": 1, "osm": "way/284121645", "kinds": "transport,tourist_facilities,fuel"}, "Photo": "null", "Website": "null"}, {"type": "Feature", "id": "203143", "geometry": {"type": "Point", "coordinates": [-6.26109, 53.330048]}, "properties": {"xid": "W284823846", "name": "Lock 6", "rate": 1, "osm": "way/284823846", "kinds": "cafes,foods,tourist_facilities"}, "Photo": "null", "Website": "null"}, {"type": "Feature", "id": "203267", "geometry": {"type": "Point", "coordinates": [-6.34762, 53.643818]}, "properties": {"xid": "W284925694", "name": "Bellewstown Inn", "rate": 1, "osm": "way/284925694", "kinds": "restaurants,foods,tourist_facilities"}, "Photo": "null", "Website": "null"}, {"type": "Feature", "id": "207687", "geometry": {"type": "Point", "coordinates": [-6.184648, 53.251122]}, "properties": {"xid": "W288391127", "name": "McDonald's", "rate": 1, "osm": "way/288391127", "kinds": "fast_food,foods,tourist_facilities"}, "Photo": "null", "Website": "null"}, {"type": "Feature", "id": "209735", "geometry": {"type": "Point", "coordinates": [-6.319, 53.365196]}, "properties": {"xid": "W289739745", "name": "Cumiskey's", "rate": 1, "osm": "way/289739745", "kinds": "pubs,foods,tourist_facilities"}, "Photo": "null", "Website": "null"}, {"type": "Feature", "id": "211289", "geometry": {"type": "Point", "coordinates": [-6.271244, 53.366745]}, "properties": {"xid": "W290652935", "name": "Botanic House", "rate": 1, "osm": "way/290652935", "kinds": "pubs,foods,tourist_facilities"}, "Photo": "null", "Website": "null"}, {"type": "Feature", "id": "212693", "geometry": {"type": "Point", "coordinates": [-6.330095, 53.342602]}, "properties": {"xid": "W291771732", "name": "Ruby Finnegan's", "rate": 1, "osm": "way/291771732", "kinds": "pubs,foods,tourist_facilities"}, "Photo": "null", "Website": "null"}, {"type": "Feature", "id": "213534", "geometry": {"type": "Point", "coordinates": [-6.255968, 53.367447]}, "properties": {"xid": "W292185701", "name": "Fagan's", "rate": 1, "osm": "way/292185701", "kinds": "pubs,foods,tourist_facilities"}, "Photo": "null", "Website": "null"}, {"type": "Feature", "id": "215046", "geometry": {"type": "Point", "coordinates": [-6.589618, 53.381786]}, "properties": {"xid": "W292943045", "name": "Oak Alley", "rate": 1, "osm": "way/292943045", "kinds": "foods,bars,tourist_facilities"}, "Photo": "null", "Website": "null"}, {"type": "Feature", "id": "215190", "geometry": {"type": "Point", "coordinates": [-6.248324, 53.34145]}, "properties": {"xid": "W293019430", "name": "Probus", "rate": 1, "osm": "way/293019430", "kinds": "alcohol,adult,cafes,foods,tourist_facilities"}, "Photo": "null", "Website": "null"}, {"type": "Feature", "id": "217651", "geometry": {"type": "Point", "coordinates": [-6.262183, 53.343719]}, "properties": {"xid": "W294423417", "name": "Boston Donuts", "rate": 1, "osm": "way/294423417", "kinds": "cafes,foods,tourist_facilities"}, "Photo": "null", "Website": "null"}, {"type": "Feature", "id": "218517", "geometry": {"type": "Point", "coordinates": [-6.254817, 53.32592]}, "properties": {"xid": "W294907666", "name": "SuperValu", "rate": 1, "osm": "way/294907666", "kinds": "shops,supermarkets,tourist_facilities"}, "Photo": "null", "Website": "null"}, {"type": "Feature", "id": "218518", "geometry": {"type": "Point", "coordinates": [-6.254722, 53.325706]}, "properties": {"xid": "W294907665", "name": "AIB", "rate": 1, "osm": "way/294907665", "kinds": "bank,banks,tourist_facilities"}, "Photo": "null", "Website": "null"}, {"type": "Feature", "id": "222859", "geometry": {"type": "Point", "coordinates": [-6.270207, 53.347183]}, "properties": {"xid": "W297641214", "name": "Oxmantown", "rate": 1, "osm": "way/297641214", "kinds": "cafes,foods,tourist_facilities"}, "Photo": "null", "Website": "null"}, {"type": "Feature", "id": "223985", "geometry": {"type": "Point", "coordinates": [-6.311998, 53.366344]}, "properties": {"xid": "W298345058", "name": "Maxol", "rate": 1, "osm": "way/298345058", "kinds": "transport,tourist_facilities,fuel"}, "Photo": "null", "Website": "null"}, {"type": "Feature", "id": "225382", "geometry": {"type": "Point", "coordinates": [-6.105034, 53.585361]}, "properties": {"xid": "W299252486", "name": "Brasco's", "rate": 1, "osm": "way/299252486", "kinds": "restaurants,foods,tourist_facilities"}, "Photo": "null", "Website": "null"}, {"type": "Feature", "id": "227591", "geometry": {"type": "Point", "coordinates": [-6.596356, 53.53603]}, "properties": {"xid": "W300644248", "name": "Killeen Castle Golf Club", "rate": 1, "osm": "way/300644248", "kinds": "restaurants,foods,tourist_facilities"}, "Photo": "null", "Website": "null"}, {"type": "Feature", "id": "227713", "geometry": {"type": "Point", "coordinates": [-6.318017, 53.369034]}, "properties": {"xid": "W300719207", "name": "Mace", "rate": 1, "osm": "way/300719207", "kinds": "shops,conveniences,tourist_facilities"}, "Photo": "null", "Website": "null"}, {"type": "Feature", "id": "229591", "geometry": {"type": "Point", "coordinates": [-6.210364, 53.275337]}, "properties": {"xid": "W301851484", "name": "Brambles", "rate": 1, "osm": "way/301851484", "kinds": "cafes,foods,tourist_facilities"}, "Photo": "null", "Website": "null"}, {"type": "Feature", "id": "229965", "geometry": {"type": "Point", "coordinates": [-6.216564, 53.276352]}, "properties": {"xid": "W302041736", "name": "The Copper Bar / Holy Cow Steakhouse", "rate": 1, "osm": "way/302041736", "kinds": "foods,bars,tourist_facilities"}, "Photo": "null", "Website": "null"}, {"type": "Feature", "id": "238737", "geometry": {"type": "Point", "coordinates": [-6.250215, 53.351566]}, "properties": {"xid": "W307149427", "name": "Spar", "rate": 1, "osm": "way/307149427", "kinds": "shops,conveniences,tourist_facilities"}, "Photo": "null", "Website": "null"}, {"type": "Feature", "id": "238738", "geometry": {"type": "Point", "coordinates": [-6.250408, 53.351231]}, "properties": {"xid": "W307149426", "name": "JJ Grainger", "rate": 1, "osm": "way/307149426", "kinds": "pubs,foods,tourist_facilities"}, "Photo": "null", "Website": "null"}, {"type": "Feature", "id": "238778", "geometry": {"type": "Point", "coordinates": [-6.288093, 53.356007]}, "properties": {"xid": "W307175604", "name": "Clarke's City Arms", "rate": 1, "osm": "way/307175604", "kinds": "pubs,foods,tourist_facilities"}, "Photo": "null", "Website": "null"}, {"type": "Feature", "id": "240356", "geometry": {"type": "Point", "coordinates": [-6.284225, 53.352348]}, "properties": {"xid": "W308091556", "name": "Cowtown Cafe", "rate": 1, "osm": "way/308091556", "kinds": "cafes,foods,tourist_facilities"}, "Photo": "null", "Website": "null"}, {"type": "Feature", "id": "240374", "geometry": {"type": "Point", "coordinates": [-6.258825, 53.341404]}, "properties": {"xid": "W308109635", "name": "Royal Hibernian Way", "rate": 1, "osm": "way/308109635", "kinds": "shops,malls,tourist_facilities"}, "Photo": "null", "Website": "null"}, {"type": "Feature", "id": "241803", "geometry": {"type": "Point", "coordinates": [-6.28582, 53.353546]}, "properties": {"xid": "W309073867", "name": "COTTO", "rate": 1, "osm": "way/309073867", "kinds": "restaurants,foods,tourist_facilities"}, "Photo": "null", "Website": "null"}, {"type": "Feature", "id": "243807", "geometry": {"type": "Point", "coordinates": [-6.289741, 53.348057]}, "properties": {"xid": "W310369905", "name": "Judge Darley's", "rate": 1, "osm": "way/310369905", "kinds": "pubs,foods,tourist_facilities"}, "Photo": "null", "Website": "null"}, {"type": "Feature", "id": "249794", "geometry": {"type": "Point", "coordinates": [-6.177135, 53.379803]}, "properties": {"xid": "W313827641", "name": "The Watermill", "rate": 1, "osm": "way/313827641", "kinds": "pubs,foods,tourist_facilities"}, "Photo": "null", "Website": "null"}, {"type": "Feature", "id": "249797", "geometry": {"type": "Point", "coordinates": [-6.177254, 53.379787]}, "properties": {"xid": "W313827637", "name": "EBS Raheny", "rate": 1, "osm": "way/313827637", "kinds": "bank,banks,tourist_facilities"}, "Photo": "null", "Website": "null"}, {"type": "Feature", "id": "249805", "geometry": {"type": "Point", "coordinates": [-6.174794, 53.379936]}, "properties": {"xid": "W313829659", "name": "Mint Cottage", "rate": 1, "osm": "way/313829659", "kinds": "restaurants,foods,tourist_facilities"}, "Photo": "null", "Website": "null"}, {"type": "Feature", "id": "249825", "geometry": {"type": "Point", "coordinates": [-6.200409, 53.373211]}, "properties": {"xid": "W313839801", "name": "re.store", "rate": 1, "osm": "way/313839801", "kinds": "shops,conveniences,tourist_facilities"}, "Photo": "null", "Website": "null"}, {"type": "Feature", "id": "249827", "geometry": {"type": "Point", "coordinates": [-6.172553, 53.380608]}, "properties": {"xid": "W313838454", "name": "Bank of Ireland", "rate": 1, "osm": "way/313838454", "kinds": "bank,banks,tourist_facilities"}, "Photo": "null", "Website": "null"}, {"type": "Feature", "id": "250066", "geometry": {"type": "Point", "coordinates": [-6.230099, 53.36475]}, "properties": {"xid": "W313953583", "name": "Bram's Caf\u00e9", "rate": 1, "osm": "way/313953583", "kinds": "cafes,foods,tourist_facilities"}, "Photo": "null", "Website": "null"}, {"type": "Feature", "id": "250207", "geometry": {"type": "Point", "coordinates": [-6.232651, 53.364128]}, "properties": {"xid": "W314051079", "name": "Four Star Pizza", "rate": 1, "osm": "way/314051079", "kinds": "fast_food,foods,tourist_facilities"}, "Photo": "null", "Website": "null"}, {"type": "Feature", "id": "250307", "geometry": {"type": "Point", "coordinates": [-6.234613, 53.363579]}, "properties": {"xid": "W314103944", "name": "Javaholics", "rate": 1, "osm": "way/314103944", "kinds": "cafes,foods,tourist_facilities"}, "Photo": "null", "Website": "null"}, {"type": "Feature", "id": "250308", "geometry": {"type": "Point", "coordinates": [-6.235696, 53.363361]}, "properties": {"xid": "W314103949", "name": "Smyths", "rate": 1, "osm": "way/314103949", "kinds": "pubs,foods,tourist_facilities"}, "Photo": "null", "Website": "null"}, {"type": "Feature", "id": "250359", "geometry": {"type": "Point", "coordinates": [-6.236515, 53.363041]}, "properties": {"xid": "W314131921", "name": "Gaffney & Son", "rate": 1, "osm": "way/314131921", "kinds": "pubs,foods,tourist_facilities"}, "Photo": "null", "Website": "null"}, {"type": "Feature", "id": "250541", "geometry": {"type": "Point", "coordinates": [-6.237361, 53.362961]}, "properties": {"xid": "W314233869", "name": "Canters", "rate": 1, "osm": "way/314233869", "kinds": "restaurants,foods,tourist_facilities"}, "Photo": "null", "Website": "null"}, {"type": "Feature", "id": "250581", "geometry": {"type": "Point", "coordinates": [-6.237339, 53.362457]}, "properties": {"xid": "W314264813", "name": "Courtney's Centra Fairview", "rate": 1, "osm": "way/314264813", "kinds": "shops,conveniences,tourist_facilities"}, "Photo": "null", "Website": "null"}, {"type": "Feature", "id": "251638", "geometry": {"type": "Point", "coordinates": [-6.192182, 53.358692]}, "properties": {"xid": "W314866466", "name": "The Bram Stoker", "rate": 1, "osm": "way/314866466", "kinds": "accomodations,other_hotels,pubs,restaurants,foods,tourist_facilities"}, "Photo": "null", "Website": "null"}, {"type": "Feature", "id": "251639", "geometry": {"type": "Point", "coordinates": [-6.18392, 53.365055]}, "properties": {"xid": "W314866465", "name": "Tillie's Cafe", "rate": 1, "osm": "way/314866465", "kinds": "cafes,foods,tourist_facilities"}, "Photo": "null", "Website": "null"}, {"type": "Feature", "id": "255265", "geometry": {"type": "Point", "coordinates": [-6.260927, 53.350246]}, "properties": {"xid": "W316971230", "name": "McDonald's", "rate": 1, "osm": "way/316971230", "kinds": "fast_food,foods,tourist_facilities"}, "Photo": "null", "Website": "null"}, {"type": "Feature", "id": "255268", "geometry": {"type": "Point", "coordinates": [-6.260766, 53.351852]}, "properties": {"xid": "W316971228", "name": "Toddy's Bar & Brasserie", "rate": 1, "osm": "way/316971228", "kinds": "foods,bars,tourist_facilities"}, "Photo": "null", "Website": "null"}, {"type": "Feature", "id": "259715", "geometry": {"type": "Point", "coordinates": [-6.184209, 53.36475]}, "properties": {"xid": "W319604936", "name": "Mace", "rate": 1, "osm": "way/319604936", "kinds": "shops,conveniences,tourist_facilities"}, "Photo": "null", "Website": "null"}, {"type": "Feature", "id": "262774", "geometry": {"type": "Point", "coordinates": [-6.103104, 53.276875]}, "properties": {"xid": "W321453616", "name": "Select Stores", "rate": 1, "osm": "way/321453616", "kinds": "cafes,foods,tourist_facilities"}, "Photo": "null", "Website": "null"}, {"type": "Feature", "id": "263815", "geometry": {"type": "Point", "coordinates": [-6.236569, 53.307983]}, "properties": {"xid": "W322315304", "name": "Allied Irish Banks", "rate": 1, "osm": "way/322315304", "kinds": "bank,banks,tourist_facilities"}, "Photo": "null", "Website": "null"}, {"type": "Feature", "id": "266435", "geometry": {"type": "Point", "coordinates": [-6.206653, 53.370632]}, "properties": {"xid": "W324346441", "name": "Nuthouse Bistro", "rate": 1, "osm": "way/324346441", "kinds": "cafes,foods,tourist_facilities"}, "Photo": "null", "Website": "null"}, {"type": "Feature", "id": "266828", "geometry": {"type": "Point", "coordinates": [-6.449573, 53.357208]}, "properties": {"xid": "W324744098", "name": "Carrolls", "rate": 1, "osm": "way/324744098", "kinds": "pubs,foods,tourist_facilities"}, "Photo": "null", "Website": "null"}, {"type": "Feature", "id": "267330", "geometry": {"type": "Point", "coordinates": [-6.262018, 53.35223]}, "properties": {"xid": "W325131328", "name": "Parnell Heritage Pub", "rate": 1, "osm": "way/325131328", "kinds": "pubs,foods,tourist_facilities"}, "Photo": "null", "Website": "null"}, {"type": "Feature", "id": "267331", "geometry": {"type": "Point", "coordinates": [-6.261824, 53.3522]}, "properties": {"xid": "W325131325", "name": "AIB", "rate": 1, "osm": "way/325131325", "kinds": "bank,banks,tourist_facilities"}, "Photo": "null", "Website": "null"}, {"type": "Feature", "id": "267435", "geometry": {"type": "Point", "coordinates": [-6.264443, 53.345585]}, "properties": {"xid": "W325216524", "name": "O\u2019Reilly\u2019s Temple Bar", "rate": 1, "osm": "way/325216524", "kinds": "restaurants,foods,tourist_facilities"}, "Photo": "null", "Website": "null"}, {"type": "Feature", "id": "269578", "geometry": {"type": "Point", "coordinates": [-6.191493, 53.358616]}, "properties": {"xid": "W326921209", "name": "Topaz", "rate": 1, "osm": "way/326921209", "kinds": "shops,transport,conveniences,tourist_facilities,fuel"}, "Photo": "null", "Website": "null"}, {"type": "Feature", "id": "272336", "geometry": {"type": "Point", "coordinates": [-6.263455, 53.628063]}, "properties": {"xid": "W329039767", "name": "Whytes bar", "rate": 1, "osm": "way/329039767", "kinds": "foods,bars,tourist_facilities"}, "Photo": "null", "Website": "null"}, {"type": "Feature", "id": "272348", "geometry": {"type": "Point", "coordinates": [-6.236004, 53.641209]}, "properties": {"xid": "W329044525", "name": "The Cock Tavern", "rate": 1, "osm": "way/329044525", "kinds": "foods,bars,tourist_facilities"}, "Photo": "null", "Website": "null"}, {"type": "Feature", "id": "278486", "geometry": {"type": "Point", "coordinates": [-6.310822, 53.288479]}, "properties": {"xid": "W332971478", "name": "Knocklyon Service Station", "rate": 1, "osm": "way/332971478", "kinds": "transport,tourist_facilities,fuel"}, "Photo": "null", "Website": "null"}, {"type": "Feature", "id": "288026", "geometry": {"type": "Point", "coordinates": [-6.189296, 53.396145]}, "properties": {"xid": "W339626135", "name": "Lidl", "rate": 1, "osm": "way/339626135", "kinds": "shops,supermarkets,tourist_facilities"}, "Photo": "null", "Website": "null"}, {"type": "Feature", "id": "291030", "geometry": {"type": "Point", "coordinates": [-6.377358, 53.43121]}, "properties": {"xid": "W342139194", "name": "Hollystown Golf Clubhouse", "rate": 1, "osm": "way/342139194", "kinds": "pubs,foods,tourist_facilities"}, "Photo": "null", "Website": "null"}, {"type": "Feature", "id": "291717", "geometry": {"type": "Point", "coordinates": [-6.240384, 53.404354]}, "properties": {"xid": "W342712259", "name": "Little Venice", "rate": 1, "osm": "way/342712259", "kinds": "restaurants,foods,tourist_facilities"}, "Photo": "null", "Website": "null"}, {"type": "Feature", "id": "294540", "geometry": {"type": "Point", "coordinates": [-6.555253, 53.300652]}, "properties": {"xid": "W345126422", "name": "The Village at Lyons", "rate": 1, "osm": "way/345126422", "kinds": "restaurants,foods,tourist_facilities"}, "Photo": "null", "Website": "null"}, {"type": "Feature", "id": "296071", "geometry": {"type": "Point", "coordinates": [-6.41622, 53.419811]}, "properties": {"xid": "W346529779", "name": "Building 2 Canteen", "rate": 1, "osm": "way/346529779", "kinds": "restaurants,foods,tourist_facilities"}, "Photo": "null", "Website": "null"}, {"type": "Feature", "id": "296109", "geometry": {"type": "Point", "coordinates": [-6.419156, 53.419708]}, "properties": {"xid": "W346530733", "name": "Building 5 Canteen", "rate": 1, "osm": "way/346530733", "kinds": "restaurants,foods,tourist_facilities"}, "Photo": "null", "Website": "null"}, {"type": "Feature", "id": "300433", "geometry": {"type": "Point", "coordinates": [-6.219601, 53.458523]}, "properties": {"xid": "W351413665", "name": "The Star", "rate": 1, "osm": "way/351413665", "kinds": "pubs,foods,tourist_facilities"}, "Photo": "null", "Website": "null"}, {"type": "Feature", "id": "301943", "geometry": {"type": "Point", "coordinates": [-6.176478, 53.300606]}, "properties": {"xid": "W352645458", "name": "Flash Harry's Beer Garden", "rate": 1, "osm": "way/352645458", "kinds": "foods,biergartens,tourist_facilities"}, "Photo": "null", "Website": "null"}, {"type": "Feature", "id": "302426", "geometry": {"type": "Point", "coordinates": [-6.27011, 53.351334]}, "properties": {"xid": "W352989510", "name": "BoCo", "rate": 1, "osm": "way/352989510", "kinds": "restaurants,foods,tourist_facilities"}, "Photo": "null", "Website": "null"}, {"type": "Feature", "id": "306647", "geometry": {"type": "Point", "coordinates": [-6.254125, 53.369541]}, "properties": {"xid": "W356323207", "name": "Scribbles", "rate": 1, "osm": "way/356323207", "kinds": "shops,conveniences,tourist_facilities"}, "Photo": "null", "Website": "null"}, {"type": "Feature", "id": "306654", "geometry": {"type": "Point", "coordinates": [-6.252173, 53.372417]}, "properties": {"xid": "W356323694", "name": "The Ivy House", "rate": 1, "osm": "way/356323694", "kinds": "pubs,foods,tourist_facilities"}, "Photo": "null", "Website": "null"}, {"type": "Feature", "id": "312151", "geometry": {"type": "Point", "coordinates": [-6.297006, 53.346581]}, "properties": {"xid": "W360792641", "name": "Heuston Station", "rate": 1, "osm": "way/360792641", "kinds": "transport,tourist_facilities,bicycle_rental"}, "Photo": "null", "Website": "null"}, {"type": "Feature", "id": "312152", "geometry": {"type": "Point", "coordinates": [-6.29783, 53.346973]}, "properties": {"xid": "W360792642", "name": "Heuston Station", "rate": 1, "osm": "way/360792642", "kinds": "transport,tourist_facilities,bicycle_rental"}, "Photo": "null", "Website": "null"}, {"type": "Feature", "id": "315984", "geometry": {"type": "Point", "coordinates": [-6.27535, 53.342434]}, "properties": {"xid": "W362954595", "name": "Drop Dead Twice", "rate": 1, "osm": "way/362954595", "kinds": "pubs,foods,tourist_facilities"}, "Photo": "null", "Website": "null"}, {"type": "Feature", "id": "323095", "geometry": {"type": "Point", "coordinates": [-6.144639, 53.282547]}, "properties": {"xid": "W366974612", "name": "Tesco Metro", "rate": 1, "osm": "way/366974612", "kinds": "shops,supermarkets,tourist_facilities"}, "Photo": "null", "Website": "null"}, {"type": "Feature", "id": "323096", "geometry": {"type": "Point", "coordinates": [-6.14364, 53.282425]}, "properties": {"xid": "W366974614", "name": "Costa Coffee", "rate": 1, "osm": "way/366974614", "kinds": "cafes,foods,tourist_facilities"}, "Photo": "null", "Website": "null"}, {"type": "Feature", "id": "324175", "geometry": {"type": "Point", "coordinates": [-6.266283, 53.517677]}, "properties": {"xid": "W367465139", "name": "Campus", "rate": 1, "osm": "way/367465139", "kinds": "transport,tourist_facilities,fuel"}, "Photo": "null", "Website": "null"}, {"type": "Feature", "id": "325304", "geometry": {"type": "Point", "coordinates": [-6.129024, 53.289383]}, "properties": {"xid": "W368145984", "name": "Fallon & Byrne Restaurant", "rate": 1, "osm": "way/368145984", "kinds": "restaurants,foods,tourist_facilities"}, "Photo": "null", "Website": "null"}, {"type": "Feature", "id": "326497", "geometry": {"type": "Point", "coordinates": [-6.160471, 53.582291]}, "properties": {"xid": "W368752045", "name": "BBQ Area", "rate": 1, "osm": "way/368752045", "kinds": "foods,picnic_site,tourist_facilities"}, "Photo": "null", "Website": "null"}, {"type": "Feature", "id": "327713", "geometry": {"type": "Point", "coordinates": [-6.253892, 53.324608]}, "properties": {"xid": "W369360051", "name": "Edelwise", "rate": 1, "osm": "way/369360051", "kinds": "restaurants,foods,tourist_facilities"}, "Photo": "null", "Website": "null"}, {"type": "Feature", "id": "327718", "geometry": {"type": "Point", "coordinates": [-6.253864, 53.324535]}, "properties": {"xid": "W369360054", "name": "gigi", "rate": 1, "osm": "way/369360054", "kinds": "restaurants,foods,tourist_facilities"}, "Photo": "null", "Website": "null"}, {"type": "Feature", "id": "327719", "geometry": {"type": "Point", "coordinates": [-6.253765, 53.324554]}, "properties": {"xid": "W369360052", "name": "scoff", "rate": 1, "osm": "way/369360052", "kinds": "cafes,foods,tourist_facilities"}, "Photo": "null", "Website": "null"}, {"type": "Feature", "id": "327722", "geometry": {"type": "Point", "coordinates": [-6.254169, 53.324738]}, "properties": {"xid": "W369361428", "name": "Dillinger's", "rate": 1, "osm": "way/369361428", "kinds": "restaurants,foods,tourist_facilities"}, "Photo": "null", "Website": "null"}, {"type": "Feature", "id": "327723", "geometry": {"type": "Point", "coordinates": [-6.254495, 53.324902]}, "properties": {"xid": "W369361430", "name": "Marios", "rate": 1, "osm": "way/369361430", "kinds": "restaurants,foods,tourist_facilities"}, "Photo": "null", "Website": "null"}, {"type": "Feature", "id": "329516", "geometry": {"type": "Point", "coordinates": [-6.272302, 53.269257]}, "properties": {"xid": "W370303889", "name": "The Wicklow Way Cafe", "rate": 1, "osm": "way/370303889", "kinds": "cafes,foods,tourist_facilities"}, "Photo": "null", "Website": "null"}, {"type": "Feature", "id": "335128", "geometry": {"type": "Point", "coordinates": [-6.216879, 53.412537]}, "properties": {"xid": "W373386081", "name": "Topaz", "rate": 1, "osm": "way/373386081", "kinds": "cafes,foods,tourist_facilities"}, "Photo": "null", "Website": "null"}, {"type": "Feature", "id": "336180", "geometry": {"type": "Point", "coordinates": [-6.219172, 53.462162]}, "properties": {"xid": "W374001516", "name": "Applegreen North Street", "rate": 1, "osm": "way/374001516", "kinds": "transport,tourist_facilities,fuel"}, "Photo": "null", "Website": "null"}, {"type": "Feature", "id": "340101", "geometry": {"type": "Point", "coordinates": [-6.362433, 53.372753]}, "properties": {"xid": "W375706578", "name": "Myos", "rate": 1, "osm": "way/375706578", "kinds": "pubs,foods,tourist_facilities"}, "Photo": "null", "Website": "null"}, {"type": "Feature", "id": "343275", "geometry": {"type": "Point", "coordinates": [-6.537712, 53.340946]}, "properties": {"xid": "W377156982", "name": "Michelangelo", "rate": 1, "osm": "way/377156982", "kinds": "restaurants,foods,tourist_facilities"}, "Photo": "null", "Website": "null"}, {"type": "Feature", "id": "343278", "geometry": {"type": "Point", "coordinates": [-6.538002, 53.340706]}, "properties": {"xid": "W377157631", "name": "Celbridge Credit Union", "rate": 1, "osm": "way/377157631", "kinds": "bank,banks,tourist_facilities"}, "Photo": "null", "Website": "null"}, {"type": "Feature", "id": "343285", "geometry": {"type": "Point", "coordinates": [-6.538679, 53.339931]}, "properties": {"xid": "W377158514", "name": "Creed Coffee Roasters", "rate": 1, "osm": "way/377158514", "kinds": "cafes,foods,tourist_facilities"}, "Photo": "null", "Website": "null"}, {"type": "Feature", "id": "343291", "geometry": {"type": "Point", "coordinates": [-6.538111, 53.340523]}, "properties": {"xid": "W377159882", "name": "China Wall Restaurant", "rate": 1, "osm": "way/377159882", "kinds": "fast_food,foods,tourist_facilities"}, "Photo": "null", "Website": "null"}, {"type": "Feature", "id": "343292", "geometry": {"type": "Point", "coordinates": [-6.537983, 53.340126]}, "properties": {"xid": "W377161105", "name": "Embassy Takeaway", "rate": 1, "osm": "way/377161105", "kinds": "fast_food,foods,tourist_facilities"}, "Photo": "null", "Website": "null"}, {"type": "Feature", "id": "349056", "geometry": {"type": "Point", "coordinates": [-6.130276, 53.292297]}, "properties": {"xid": "W380135580", "name": "The Carlisle Bar Beer Garden", "rate": 1, "osm": "way/380135580", "kinds": "foods,biergartens,tourist_facilities"}, "Photo": "null", "Website": "null"}, {"type": "Feature", "id": "354568", "geometry": {"type": "Point", "coordinates": [-6.282081, 53.350395]}, "properties": {"xid": "W383992493", "name": "The Belfry", "rate": 1, "osm": "way/383992493", "kinds": "pubs,foods,tourist_facilities"}, "Photo": "null", "Website": "null"}, {"type": "Feature", "id": "355274", "geometry": {"type": "Point", "coordinates": [-6.280262, 53.347294]}, "properties": {"xid": "W384344469", "name": "McGettigans", "rate": 1, "osm": "way/384344469", "kinds": "pubs,foods,tourist_facilities"}, "Photo": "null", "Website": "null"}, {"type": "Feature", "id": "356202", "geometry": {"type": "Point", "coordinates": [-6.246507, 53.391426]}, "properties": {"xid": "W384888713", "name": "Maxol", "rate": 1, "osm": "way/384888713", "kinds": "transport,tourist_facilities,fuel"}, "Photo": "null", "Website": "null"}, {"type": "Feature", "id": "363084", "geometry": {"type": "Point", "coordinates": [-6.34968, 53.378231]}, "properties": {"xid": "W388905775", "name": "Brady's", "rate": 1, "osm": "way/388905775", "kinds": "transport,tourist_facilities,fuel"}, "Photo": "null", "Website": "null"}, {"type": "Feature", "id": "368553", "geometry": {"type": "Point", "coordinates": [-6.37418, 53.385906]}, "properties": {"xid": "W391799132", "name": "Ulster Bank", "rate": 1, "osm": "way/391799132", "kinds": "bank,banks,tourist_facilities"}, "Photo": "null", "Website": "null"}, {"type": "Feature", "id": "376965", "geometry": {"type": "Point", "coordinates": [-6.177765, 53.287643]}, "properties": {"xid": "W397314703", "name": "The Wishing Well", "rate": 1, "osm": "way/397314703", "kinds": "pubs,foods,tourist_facilities"}, "Photo": "null", "Website": "null"}, {"type": "Feature", "id": "380653", "geometry": {"type": "Point", "coordinates": [-6.284855, 53.372837]}, "properties": {"xid": "W399343860", "name": "Tigerwash", "rate": 1, "osm": "way/399343860", "kinds": "transport,tourist_facilities,car_wash"}, "Photo": "null", "Website": "null"}, {"type": "Feature", "id": "381849", "geometry": {"type": "Point", "coordinates": [-6.579646, 53.425186]}, "properties": {"xid": "W400241917", "name": "Kilcloon Credit Union", "rate": 1, "osm": "way/400241917", "kinds": "bank,banks,tourist_facilities"}, "Photo": "null", "Website": "null"}, {"type": "Feature", "id": "381855", "geometry": {"type": "Point", "coordinates": [-6.592805, 53.432739]}, "properties": {"xid": "W400244444", "name": "Clarke's Shop", "rate": 1, "osm": "way/400244444", "kinds": "shops,conveniences,tourist_facilities"}, "Photo": "null", "Website": "null"}, {"type": "Feature", "id": "385139", "geometry": {"type": "Point", "coordinates": [-6.246176, 53.300812]}, "properties": {"xid": "W402260901", "name": "O Kee", "rate": 1, "osm": "way/402260901", "kinds": "fast_food,foods,tourist_facilities"}, "Photo": "null", "Website": "null"}, {"type": "Feature", "id": "385176", "geometry": {"type": "Point", "coordinates": [-6.249364, 53.343697]}, "properties": {"xid": "W402277105", "name": "Offbeat Donut Co", "rate": 1, "osm": "way/402277105", "kinds": "fast_food,foods,tourist_facilities"}, "Photo": "null", "Website": "null"}, {"type": "Feature", "id": "388053", "geometry": {"type": "Point", "coordinates": [-6.596085, 53.451118]}, "properties": {"xid": "W404263819", "name": "The Hatchet", "rate": 1, "osm": "way/404263819", "kinds": "transport,tourist_facilities,fuel"}, "Photo": "null", "Website": "null"}, {"type": "Feature", "id": "388063", "geometry": {"type": "Point", "coordinates": [-6.535521, 53.468788]}, "properties": {"xid": "W404266942", "name": "Londis", "rate": 1, "osm": "way/404266942", "kinds": "shops,conveniences,tourist_facilities"}, "Photo": "null", "Website": "null"}, {"type": "Feature", "id": "390418", "geometry": {"type": "Point", "coordinates": [-6.280232, 53.347572]}, "properties": {"xid": "W405868910", "name": "Token", "rate": 1, "osm": "way/405868910", "kinds": "foods,bars,tourist_facilities"}, "Photo": "null", "Website": "null"}, {"type": "Feature", "id": "394062", "geometry": {"type": "Point", "coordinates": [-6.265399, 53.337444]}, "properties": {"xid": "W408630070", "name": "Burritos & Blues", "rate": 1, "osm": "way/408630070", "kinds": "fast_food,foods,tourist_facilities"}, "Photo": "null", "Website": "null"}, {"type": "Feature", "id": "412157", "geometry": {"type": "Point", "coordinates": [-6.150219, 53.296101]}, "properties": {"xid": "W422792005", "name": "Picnic site", "rate": 1, "osm": "way/422792005", "kinds": "foods,picnic_site,tourist_facilities"}, "Photo": "null", "Website": "null"}, {"type": "Feature", "id": "412470", "geometry": {"type": "Point", "coordinates": [-6.410225, 53.406013]}, "properties": {"xid": "W422970832", "name": "M3 Mulhuddart Services (HGV)", "rate": 1, "osm": "way/422970832", "kinds": "transport,tourist_facilities,fuel"}, "Photo": "null", "Website": "null"}, {"type": "Feature", "id": "417726", "geometry": {"type": "Point", "coordinates": [-6.4677, 53.281197]}, "properties": {"xid": "W426743417", "name": "Tesco Express Rathcoole", "rate": 1, "osm": "way/426743417", "kinds": "shops,conveniences,tourist_facilities"}, "Photo": "null", "Website": "null"}, {"type": "Feature", "id": "417799", "geometry": {"type": "Point", "coordinates": [-6.469086, 53.281132]}, "properties": {"xid": "W426792673", "name": "The Baurnafea House", "rate": 1, "osm": "way/426792673", "kinds": "pubs,foods,tourist_facilities"}, "Photo": "null", "Website": "null"}, {"type": "Feature", "id": "446213", "geometry": {"type": "Point", "coordinates": [-6.300218, 53.338882]}, "properties": {"xid": "W445174995", "name": "Mace", "rate": 1, "osm": "way/445174995", "kinds": "shops,conveniences,tourist_facilities"}, "Photo": "null", "Website": "null"}, {"type": "Feature", "id": "447096", "geometry": {"type": "Point", "coordinates": [-6.167456, 53.388676]}, "properties": {"xid": "W445731764", "name": "Kilbarrack Shopping Centre", "rate": 1, "osm": "way/445731764", "kinds": "shops,malls,tourist_facilities"},